{
"type": "FeatureCollection",
"crs": { "type": "name", "properties": { "name": "urn:ogc:def:crs:OGC:1.3:CRS84" } },
"features": [
{ "type": "Feature", "properties": { "name": "Afghanistan", "zhname": "阿富汗", "destnum": 111353, "orignum": 5120959},      "geometry": { "type": "Point", "coordinates": [67.71,33.9391,0.0 ] } },
{ "type": "Feature", "properties": { "name": "Albania", "zhname": "阿尔巴尼亚", "destnum": 43711, "orignum": 1207092},      "geometry": { "type": "Point", "coordinates": [20.1683,41.1533,0.0 ] } },
{ "type": "Feature", "properties": { "name": "Algeria", "zhname": "阿尔及利亚", "destnum": 240740, "orignum": 1945035},      "geometry": { "type": "Point", "coordinates": [1.6596,28.0339,0.0 ] } },
{ "type": "Feature", "properties": { "name": "American Samoa", "zhname": "美属萨摩亚群岛", "destnum": 22965, "orignum": 1817},      "geometry": { "type": "Point", "coordinates": [-170.1322,-14.270999999999999,0.0 ] } },
{ "type": "Feature", "properties": { "name": "Andorra", "zhname": "安道尔", "destnum": 42440, "orignum": 9114},      "geometry": { "type": "Point", "coordinates": [1.5218,42.5063,0.0 ] } },
{ "type": "Feature", "properties": { "name": "Angola", "zhname": "安哥拉", "destnum": 157936, "orignum": 661602},      "geometry": { "type": "Point", "coordinates": [17.8739,-11.2027,0.0 ] } },
{ "type": "Feature", "properties": { "name": "Anguilla", "zhname": "安圭拉", "destnum": 4170, "orignum": 2707},      "geometry": { "type": "Point", "coordinates": [-63.0686,18.2206,0.0 ] } },
{ "type": "Feature", "properties": { "name": "Antigua and Barbuda", "zhname": "安提瓜和巴布达岛", "destnum": 28772, "orignum": 55098},      "geometry": { "type": "Point", "coordinates": [-61.7964,17.0608,0.0 ] } },
{ "type": "Feature", "properties": { "name": "Argentina", "zhname": "阿根廷", "destnum": 2167954, "orignum": 1013489},      "geometry": { "type": "Point", "coordinates": [-63.6167,-38.4161,0.0 ] } },
{ "type": "Feature", "properties": { "name": "Armenia", "zhname": "亚美尼亚", "destnum": 170364, "orignum": 964864},      "geometry": { "type": "Point", "coordinates": [45.0382,40.0691,0.0 ] } },
{ "type": "Feature", "properties": { "name": "Aruba", "zhname": "阿鲁巴", "destnum": 34886, "orignum": 19642},      "geometry": { "type": "Point", "coordinates": [-69.9683,12.5211,0.0 ] } },
{ "type": "Feature", "properties": { "name": "Australia", "zhname": "澳大利亚", "destnum": 7451863, "orignum": 577338},      "geometry": { "type": "Point", "coordinates": [133.7751,-25.2744,0.0 ] } },
{ "type": "Feature", "properties": { "name": "Austria", "zhname": "奥地利", "destnum": 1779857, "orignum": 576011},      "geometry": { "type": "Point", "coordinates": [14.5501,47.5162,0.0 ] } },
{ "type": "Feature", "properties": { "name": "Azerbaijan", "zhname": "阿塞拜疆", "destnum": 251453, "orignum": 1155867},      "geometry": { "type": "Point", "coordinates": [47.5769,40.1431,0.0 ] } },
{ "type": "Feature", "properties": { "name": "Bahamas", "zhname": "巴哈马", "destnum": 61850, "orignum": 46473},      "geometry": { "type": "Point", "coordinates": [-77.3963,25.0343,0.0 ] } },
{ "type": "Feature", "properties": { "name": "Bahrain", "zhname": "巴林", "destnum": 732974, "orignum": 60163},      "geometry": { "type": "Point", "coordinates": [50.5577,26.0667,0.0 ] } },
{ "type": "Feature", "properties": { "name": "Bangladesh", "zhname": "孟加拉国", "destnum": 1850149, "orignum": 7835380},      "geometry": { "type": "Point", "coordinates": [90.3563,23.685,0.0 ] } },
{ "type": "Feature", "properties": { "name": "Barbados", "zhname": "巴巴多斯", "destnum": 20583, "orignum": 112980},      "geometry": { "type": "Point", "coordinates": [-59.5432,13.1939,0.0 ] } },
{ "type": "Feature", "properties": { "name": "Belarus", "zhname": "白俄罗斯", "destnum": 1069089, "orignum": 1480838},      "geometry": { "type": "Point", "coordinates": [27.9534,53.7098,0.0 ] } },
{ "type": "Feature", "properties": { "name": "Belgium", "zhname": "比利时", "destnum": 1866794, "orignum": 581813},      "geometry": { "type": "Point", "coordinates": [4.4699,50.5039,0.0 ] } },
{ "type": "Feature", "properties": { "name": "Belize", "zhname": "伯利兹", "destnum": 58477, "orignum": 68151},      "geometry": { "type": "Point", "coordinates": [-88.4976,17.1899,0.0 ] } },
{ "type": "Feature", "properties": { "name": "Benin", "zhname": "贝宁", "destnum": 348583, "orignum": 666367},      "geometry": { "type": "Point", "coordinates": [2.3158,9.3077,0.0 ] } },
{ "type": "Feature", "properties": { "name": "Bermuda", "zhname": "百慕大", "destnum": 18267, "orignum": 18057},      "geometry": { "type": "Point", "coordinates": [-64.7505,32.3078,0.0 ] } },
{ "type": "Feature", "properties": { "name": "Bhutan", "zhname": "不丹", "destnum": 49177, "orignum": 49233},      "geometry": { "type": "Point", "coordinates": [90.4336,27.5142,0.0 ] } },
{ "type": "Feature", "properties": { "name": "Bolivia (Plurinational State of)", "zhname": "玻利维亚", "destnum": 152255, "orignum": 878228},      "geometry": { "type": "Point", "coordinates": [-63.5887,-16.2902,0.0 ] } },
{ "type": "Feature", "properties": { "name": "Bonaire, Sint Eustatius and Saba", "zhname": "博内尔", "destnum": 14761, "orignum": 12779},      "geometry": { "type": "Point", "coordinates": [68.2624,12.2019,0.0 ] } },
{ "type": "Feature", "properties": { "name": "Bosnia and Herzegovina", "zhname": "波斯尼亚和黑塞哥维那", "destnum": 34853, "orignum": 1653196},      "geometry": { "type": "Point", "coordinates": [17.6791,43.9159,0.0 ] } },
{ "type": "Feature", "properties": { "name": "Botswana", "zhname": "博茨瓦纳", "destnum": 103487, "orignum": 86504},      "geometry": { "type": "Point", "coordinates": [24.6849,-22.3285,0.0 ] } },
{ "type": "Feature", "properties": { "name": "Brazil", "zhname": "巴西", "destnum": 787722, "orignum": 1745454},      "geometry": { "type": "Point", "coordinates": [-51.9253,-14.235,0.0 ] } },
{ "type": "Feature", "properties": { "name": "British Virgin Islands", "zhname": "英属维尔京群岛", "destnum": 17597, "orignum": 5417},      "geometry": { "type": "Point", "coordinates": [-64.64,18.4207,0.0 ] } },
{ "type": "Feature", "properties": { "name": "Brunei Darussalam", "zhname": "文莱达鲁萨兰国", "destnum": 109525, "orignum": 46994},      "geometry": { "type": "Point", "coordinates": [114.7277,4.5353,0.0 ] } },
{ "type": "Feature", "properties": { "name": "Bulgaria", "zhname": "保加利亚", "destnum": 165937, "orignum": 1541931},      "geometry": { "type": "Point", "coordinates": [25.4858,42.7339,0.0 ] } },
{ "type": "Feature", "properties": { "name": "Burkina Faso", "zhname": "布基纳法索", "destnum": 670546, "orignum": 1581090},      "geometry": { "type": "Point", "coordinates": [-1.5616,12.2383,0.0 ] } },
{ "type": "Feature", "properties": { "name": "Burundi", "zhname": "布隆迪", "destnum": 291284, "orignum": 624032},      "geometry": { "type": "Point", "coordinates": [29.9189,-3.3731,0.0 ] } },
{ "type": "Feature", "properties": { "name": "Cabo Verde", "zhname": "佛得角", "destnum": 14068, "orignum": 186372},      "geometry": { "type": "Point", "coordinates": [23.0418,16.5388,0.0 ] } },
{ "type": "Feature", "properties": { "name": "Cambodia", "zhname": "柬埔寨", "destnum": 75509, "orignum": 1097975},      "geometry": { "type": "Point", "coordinates": [104.991,12.5657,0.0 ] } },
{ "type": "Feature", "properties": { "name": "Cameroon", "zhname": "喀麦隆", "destnum": 491964, "orignum": 383102},      "geometry": { "type": "Point", "coordinates": [12.3547,7.3697,0.0 ] } },
{ "type": "Feature", "properties": { "name": "Canada", "zhname": "加拿大", "destnum": 7956487, "orignum": 1323087},      "geometry": { "type": "Point", "coordinates": [-106.3468,56.1304,0.0 ] } },
{ "type": "Feature", "properties": { "name": "Cayman Islands", "zhname": "开曼群岛", "destnum": 28868, "orignum": 1974},      "geometry": { "type": "Point", "coordinates": [-81.2546,19.3133,0.0 ] } },
{ "type": "Feature", "properties": { "name": "Central African Republic", "zhname": "中非共和国", "destnum": 64519, "orignum": 767889},      "geometry": { "type": "Point", "coordinates": [20.9394,6.6111,0.0 ] } },
{ "type": "Feature", "properties": { "name": "Chad", "zhname": "乍得", "destnum": 496489, "orignum": 206406},      "geometry": { "type": "Point", "coordinates": [18.7322,15.4542,0.0 ] } },
{ "type": "Feature", "properties": { "name": "Channel Islands", "zhname": "海峡群岛", "destnum": 80639, "orignum": 22545},      "geometry": { "type": "Point", "coordinates": [2.2052,49.2327,0.0 ] } },
{ "type": "Feature", "properties": { "name": "Chile", "zhname": "智利", "destnum": 939992, "orignum": 650255},      "geometry": { "type": "Point", "coordinates": [-71.543,-35.6751,0.0 ] } },
{ "type": "Feature", "properties": { "name": "China", "zhname": "中国", "destnum": 857732, "orignum": 10734807},      "geometry": { "type": "Point", "coordinates": [104.1954,35.8617,0.0 ] } },
{ "type": "Feature", "properties": { "name": "China, Hong Kong Special Administrative Region", "zhname": "中国香港", "destnum": 2918771, "orignum": 1111170},      "geometry": { "type": "Point", "coordinates": [114.1095,22.3964,0.0 ] } },
{ "type": "Feature", "properties": { "name": "China, Macao Special Administrative Region", "zhname": "中国澳门", "destnum": 353514, "orignum": 161953},      "geometry": { "type": "Point", "coordinates": [113.5439,22.1987,0.0 ] } },
{ "type": "Feature", "properties": { "name": "Colombia", "zhname": "哥伦比亚", "destnum": 1140328, "orignum": 2869305},      "geometry": { "type": "Point", "coordinates": [-74.2973,4.5709,0.0 ] } },
{ "type": "Feature", "properties": { "name": "Comoros", "zhname": "科摩罗", "destnum": 11156, "orignum": 120298},      "geometry": { "type": "Point", "coordinates": [43.3333,-11.6455,0.0 ] } },
{ "type": "Feature", "properties": { "name": "Congo", "zhname": "刚果", "destnum": 393433, "orignum": 239407},      "geometry": { "type": "Point", "coordinates": [21.7587,-4.0383,0.0 ] } },
{ "type": "Feature", "properties": { "name": "Cook Islands", "zhname": "库克群岛", "destnum": 2863, "orignum": 22488},      "geometry": { "type": "Point", "coordinates": [-159.7777,-21.2367,0.0 ] } },
{ "type": "Feature", "properties": { "name": "Costa Rica", "zhname": "哥斯达黎加", "destnum": 403575, "orignum": 150415},      "geometry": { "type": "Point", "coordinates": [-84.0907,9.9281,0.0 ] } },
{ "type": "Feature", "properties": { "name": "Cote d'Ivoire", "zhname": "科特迪瓦", "destnum": 2477985, "orignum": 1114047},      "geometry": { "type": "Point", "coordinates": [-5.5471,7.54,0.0 ] } },
{ "type": "Feature", "properties": { "name": "Croatia", "zhname": "克罗地亚", "destnum": 513292, "orignum": 990168},      "geometry": { "type": "Point", "coordinates": [15.2,45.1,0.0 ] } },
{ "type": "Feature", "properties": { "name": "Cuba", "zhname": "古巴", "destnum": 4131, "orignum": 1654754},      "geometry": { "type": "Point", "coordinates": [-77.7812,21.5218,0.0 ] } },
{ "type": "Feature", "properties": { "name": "Curacao", "zhname": "库拉索岛", "destnum": 40249, "orignum": 81171},      "geometry": { "type": "Point", "coordinates": [-68.99,12.1696,0.0 ] } },
{ "type": "Feature", "properties": { "name": "Cyprus", "zhname": "塞浦路斯", "destnum": 189224, "orignum": 214664},      "geometry": { "type": "Point", "coordinates": [33.4299,35.1264,0.0 ] } },
{ "type": "Feature", "properties": { "name": "Czech Republic", "zhname": "捷克", "destnum": 512705, "orignum": 911469},      "geometry": { "type": "Point", "coordinates": [15.472999999999999,49.8175,0.0 ] } },
{ "type": "Feature", "properties": { "name": "Democratic People's Republic of Korea", "zhname": "朝鲜", "destnum": 47208, "orignum": 113121},      "geometry": { "type": "Point", "coordinates": [127.5101,40.3399,0.0 ] } },
{ "type": "Feature", "properties": { "name": "Democratic Republic of the Congo", "zhname": "民主刚果", "destnum": 929883, "orignum": 1684715},      "geometry": { "type": "Point", "coordinates": [21.7587,-4.0383,0.0 ] } },
{ "type": "Feature", "properties": { "name": "Denmark", "zhname": "丹麦", "destnum": 722878, "orignum": 255665},      "geometry": { "type": "Point", "coordinates": [9.5018,56.2639,0.0 ] } },
{ "type": "Feature", "properties": { "name": "Djibouti", "zhname": "吉布提", "destnum": 108440, "orignum": 18677},      "geometry": { "type": "Point", "coordinates": [42.5903,11.8251,0.0 ] } },
{ "type": "Feature", "properties": { "name": "Dominica", "zhname": "多米尼加", "destnum": 6616, "orignum": 78644},      "geometry": { "type": "Point", "coordinates": [-61.371,15.415,0.0 ] } },
{ "type": "Feature", "properties": { "name": "Dominican Republic", "zhname": "多明尼加共和国", "destnum": 558901, "orignum": 1558710},      "geometry": { "type": "Point", "coordinates": [-70.1627,18.7357,0.0 ] } },
{ "type": "Feature", "properties": { "name": "Ecuador", "zhname": "厄瓜多尔", "destnum": 311304, "orignum": 1183744},      "geometry": { "type": "Point", "coordinates": [-78.1834,-1.8312,0.0 ] } },
{ "type": "Feature", "properties": { "name": "Egypt", "zhname": "埃及", "destnum": 479078, "orignum": 3547877},      "geometry": { "type": "Point", "coordinates": [30.8025,26.8206,0.0 ] } },
{ "type": "Feature", "properties": { "name": "El Salvador", "zhname": "萨尔瓦多", "destnum": 42466, "orignum": 1600927},      "geometry": { "type": "Point", "coordinates": [-88.8965,13.7942,0.0 ] } },
{ "type": "Feature", "properties": { "name": "Equatorial Guinea", "zhname": "赤道几内亚", "destnum": 9617, "orignum": 125670},      "geometry": { "type": "Point", "coordinates": [10.2679,1.6508,0.0 ] } },
{ "type": "Feature", "properties": { "name": "Eritrea", "zhname": "厄立特里亚", "destnum": 13843, "orignum": 751539},      "geometry": { "type": "Point", "coordinates": [39.7823,15.1794,0.0 ] } },
{ "type": "Feature", "properties": { "name": "Estonia", "zhname": "爱沙尼亚", "destnum": 190208, "orignum": 208270},      "geometry": { "type": "Point", "coordinates": [25.0136,58.5953,0.0 ] } },
{ "type": "Feature", "properties": { "name": "Ethiopia", "zhname": "埃塞俄比亚", "destnum": 1225432, "orignum": 871874},      "geometry": { "type": "Point", "coordinates": [40.4897,9.145,0.0 ] } },
{ "type": "Feature", "properties": { "name": "Faeroe Islands", "zhname": "法罗群岛", "destnum": 1820, "orignum": 1623},      "geometry": { "type": "Point", "coordinates": [-6.9118,61.8926,0.0 ] } },
{ "type": "Feature", "properties": { "name": "Falkland Islands (Malvinas)", "zhname": "福克兰群岛", "destnum": 6044, "orignum": 13838},      "geometry": { "type": "Point", "coordinates": [-59.5236,-51.7963,0.0 ] } },
{ "type": "Feature", "properties": { "name": "Fiji", "zhname": "斐济", "destnum": 12218, "orignum": 222728},      "geometry": { "type": "Point", "coordinates": [178.065,-17.7134,0.0 ] } },
{ "type": "Feature", "properties": { "name": "Finland", "zhname": "芬兰", "destnum": 381016, "orignum": 290042},      "geometry": { "type": "Point", "coordinates": [25.7482,61.9241,0.0 ] } },
{ "type": "Feature", "properties": { "name": "France", "zhname": "法国", "destnum": 8334875, "orignum": 2296944},      "geometry": { "type": "Point", "coordinates": [2.2137,46.2276,0.0 ] } },
{ "type": "Feature", "properties": { "name": "French Guiana", "zhname": "法属圭亚那", "destnum": 114784, "orignum": 4556},      "geometry": { "type": "Point", "coordinates": [53.1258,3.9339,0.0 ] } },
{ "type": "Feature", "properties": { "name": "French Polynesia", "zhname": "法属玻里尼西亚", "destnum": 27209, "orignum": 1982},      "geometry": { "type": "Point", "coordinates": [-149.4068,-17.6797,0.0 ] } },
{ "type": "Feature", "properties": { "name": "Gabon", "zhname": "加蓬", "destnum": 400640, "orignum": 46688},      "geometry": { "type": "Point", "coordinates": [11.6094,-0.8037,0.0 ] } },
{ "type": "Feature", "properties": { "name": "Gambia", "zhname": "冈比亚", "destnum": 209153, "orignum": 118485},      "geometry": { "type": "Point", "coordinates": [-15.3101,13.4432,0.0 ] } },
{ "type": "Feature", "properties": { "name": "Georgia", "zhname": "格鲁吉亚", "destnum": 75932, "orignum": 852826},      "geometry": { "type": "Point", "coordinates": [43.3569,42.3154,0.0 ] } },
{ "type": "Feature", "properties": { "name": "Germany", "zhname": "德国", "destnum": 13020724, "orignum": 4014770},      "geometry": { "type": "Point", "coordinates": [10.4515,51.1657,0.0 ] } },
{ "type": "Feature", "properties": { "name": "Ghana", "zhname": "加纳", "destnum": 397525, "orignum": 970714},      "geometry": { "type": "Point", "coordinates": [-1.0232,7.9465,0.0 ] } },
{ "type": "Feature", "properties": { "name": "Gibraltar", "zhname": "直布罗陀", "destnum": 8827, "orignum": 14320},      "geometry": { "type": "Point", "coordinates": [-5.3536,36.1408,0.0 ] } },
{ "type": "Feature", "properties": { "name": "Greece", "zhname": "希腊", "destnum": 1211382, "orignum": 1039501},      "geometry": { "type": "Point", "coordinates": [21.8243,39.0742,0.0 ] } },
{ "type": "Feature", "properties": { "name": "Greenland", "zhname": "格陵兰岛", "destnum": 5423, "orignum": 18684},      "geometry": { "type": "Point", "coordinates": [-42.6043,71.7069,0.0 ] } },
{ "type": "Feature", "properties": { "name": "Grenada", "zhname": "格林纳达", "destnum": 4863, "orignum": 75825},      "geometry": { "type": "Point", "coordinates": [-61.678999999999995,12.1165,0.0 ] } },
{ "type": "Feature", "properties": { "name": "Guadeloupe", "zhname": "瓜德罗普岛", "destnum": 94448, "orignum": 11858},      "geometry": { "type": "Point", "coordinates": [61.551,16.265,0.0 ] } },
{ "type": "Feature", "properties": { "name": "Guam", "zhname": "关岛", "destnum": 77237, "orignum": 2197},      "geometry": { "type": "Point", "coordinates": [144.7937,13.4443,0.0 ] } },
{ "type": "Feature", "properties": { "name": "Guatemala", "zhname": "危地马拉", "destnum": 78245, "orignum": 1205711},      "geometry": { "type": "Point", "coordinates": [-90.5069,14.6349,0.0 ] } },
{ "type": "Feature", "properties": { "name": "Guinea", "zhname": "几内亚", "destnum": 111052, "orignum": 530983},      "geometry": { "type": "Point", "coordinates": [-9.6966,9.9456,0.0 ] } },
{ "type": "Feature", "properties": { "name": "Guinea-Bissau", "zhname": "几内亚比绍", "destnum": 25165, "orignum": 103588},      "geometry": { "type": "Point", "coordinates": [-15.1804,11.8037,0.0 ] } },
{ "type": "Feature", "properties": { "name": "Guyana", "zhname": "圭亚那", "destnum": 14796, "orignum": 520538},      "geometry": { "type": "Point", "coordinates": [-58.9302,4.8604,0.0 ] } },
{ "type": "Feature", "properties": { "name": "Haiti", "zhname": "海地", "destnum": 17354, "orignum": 1586044},      "geometry": { "type": "Point", "coordinates": [-72.2852,18.9712,0.0 ] } },
{ "type": "Feature", "properties": { "name": "Holy See", "zhname": "梵蒂冈", "destnum": 0, "orignum": 217},      "geometry": { "type": "Point", "coordinates": [12.4534,41.9029,0.0 ] } },
{ "type": "Feature", "properties": { "name": "Honduras", "zhname": "洪都拉斯", "destnum": 38699, "orignum": 800738},      "geometry": { "type": "Point", "coordinates": [-86.2419,15.2,0.0 ] } },
{ "type": "Feature", "properties": { "name": "Hungary", "zhname": "匈牙利", "destnum": 492314, "orignum": 632269},      "geometry": { "type": "Point", "coordinates": [19.5033,47.1625,0.0 ] } },
{ "type": "Feature", "properties": { "name": "Iceland", "zhname": "冰岛", "destnum": 51279, "orignum": 42188},      "geometry": { "type": "Point", "coordinates": [-19.0208,64.9631,0.0 ] } },
{ "type": "Feature", "properties": { "name": "India", "zhname": "印度", "destnum": 5140200, "orignum": 17513533},      "geometry": { "type": "Point", "coordinates": [78.9629,20.5937,0.0 ] } },
{ "type": "Feature", "properties": { "name": "Indonesia", "zhname": "印度尼西亚", "destnum": 312573, "orignum": 4533048},      "geometry": { "type": "Point", "coordinates": [113.9213,-0.7893,0.0 ] } },
{ "type": "Feature", "properties": { "name": "Iran (Islamic Republic of)", "zhname": "伊朗", "destnum": 2443847, "orignum": 1302576},      "geometry": { "type": "Point", "coordinates": [53.688,32.4279,0.0 ] } },
{ "type": "Feature", "properties": { "name": "Iraq", "zhname": "伊拉克", "destnum": 341562, "orignum": 2033789},      "geometry": { "type": "Point", "coordinates": [43.6793,33.2232,0.0 ] } },
{ "type": "Feature", "properties": { "name": "Ireland", "zhname": "爱尔兰", "destnum": 833564, "orignum": 816908},      "geometry": { "type": "Point", "coordinates": [-7.6921,53.1424,0.0 ] } },
{ "type": "Feature", "properties": { "name": "Isle of Man", "zhname": "英属地曼岛", "destnum": 37267, "orignum": 12809},      "geometry": { "type": "Point", "coordinates": [-4.5481,54.2361,0.0 ] } },
{ "type": "Feature", "properties": { "name": "Israel", "zhname": "以色列", "destnum": 1367290, "orignum": 370040},      "geometry": { "type": "Point", "coordinates": [34.8516,31.0461,0.0 ] } },
{ "type": "Feature", "properties": { "name": "Italy", "zhname": "意大利", "destnum": 6228525, "orignum": 3078697},      "geometry": { "type": "Point", "coordinates": [12.5674,41.8719,0.0 ] } },
{ "type": "Feature", "properties": { "name": "Jamaica", "zhname": "牙买加", "destnum": 20967, "orignum": 1111559},      "geometry": { "type": "Point", "coordinates": [-77.2975,18.1096,0.0 ] } },
{ "type": "Feature", "properties": { "name": "Japan", "zhname": "日本", "destnum": 2313427, "orignum": 838957},      "geometry": { "type": "Point", "coordinates": [138.2529,36.2048,0.0 ] } },
{ "type": "Feature", "properties": { "name": "Jordan", "zhname": "约旦", "destnum": 3324014, "orignum": 784428},      "geometry": { "type": "Point", "coordinates": [36.2384,30.5852,0.0 ] } },
{ "type": "Feature", "properties": { "name": "Kazakhstan", "zhname": "哈萨克斯坦", "destnum": 3434949, "orignum": 4005636},      "geometry": { "type": "Point", "coordinates": [66.9237,48.0196,0.0 ] } },
{ "type": "Feature", "properties": { "name": "Kenya", "zhname": "肯尼亚", "destnum": 971157, "orignum": 525543},      "geometry": { "type": "Point", "coordinates": [37.9062,-0.0236,0.0 ] } },
{ "type": "Feature", "properties": { "name": "Kiribati", "zhname": "基里巴斯", "destnum": 2531, "orignum": 4370},      "geometry": { "type": "Point", "coordinates": [168.734,-3.3704,0.0 ] } },
{ "type": "Feature", "properties": { "name": "Kuwait", "zhname": "科威特", "destnum": 2913591, "orignum": 205441},      "geometry": { "type": "Point", "coordinates": [47.9774,29.3759,0.0 ] } },
{ "type": "Feature", "properties": { "name": "Kyrgyzstan", "zhname": "吉尔吉斯斯坦", "destnum": 195949, "orignum": 754981},      "geometry": { "type": "Point", "coordinates": [74.7661,41.2044,0.0 ] } },
{ "type": "Feature", "properties": { "name": "Lao People's Democratic Republic", "zhname": "老挝", "destnum": 44627, "orignum": 1347091},      "geometry": { "type": "Point", "coordinates": [102.4955,19.8563,0.0 ] } },
{ "type": "Feature", "properties": { "name": "Latvia", "zhname": "拉脱维亚", "destnum": 237266, "orignum": 332243},      "geometry": { "type": "Point", "coordinates": [24.6032,56.8796,0.0 ] } },
{ "type": "Feature", "properties": { "name": "Lebanon", "zhname": "黎巴嫩", "destnum": 1862326, "orignum": 844503},      "geometry": { "type": "Point", "coordinates": [35.8623,33.8547,0.0 ] } },
{ "type": "Feature", "properties": { "name": "Lesotho", "zhname": "莱索托", "destnum": 4136, "orignum": 341581},      "geometry": { "type": "Point", "coordinates": [28.2336,-29.61,0.0 ] } },
{ "type": "Feature", "properties": { "name": "Liberia", "zhname": "利比里亚", "destnum": 86184, "orignum": 219348},      "geometry": { "type": "Point", "coordinates": [-9.4295,6.4281,0.0 ] } },
{ "type": "Feature", "properties": { "name": "Libya", "zhname": "利比亚", "destnum": 818216, "orignum": 180611},      "geometry": { "type": "Point", "coordinates": [17.2283,26.3351,0.0 ] } },
{ "type": "Feature", "properties": { "name": "Liechtenstein", "zhname": "列支敦斯登", "destnum": 24608, "orignum": 3713},      "geometry": { "type": "Point", "coordinates": [9.5554,47.166000000000004,0.0 ] } },
{ "type": "Feature", "properties": { "name": "Lithuania", "zhname": "立陶宛", "destnum": 116893, "orignum": 610242},      "geometry": { "type": "Point", "coordinates": [23.8813,55.1694,0.0 ] } },
{ "type": "Feature", "properties": { "name": "Luxembourg", "zhname": "卢森堡", "destnum": 291636, "orignum": 75472},      "geometry": { "type": "Point", "coordinates": [6.1319,49.6116,0.0 ] } },
{ "type": "Feature", "properties": { "name": "Madagascar", "zhname": "马达加斯加", "destnum": 25555, "orignum": 184776},      "geometry": { "type": "Point", "coordinates": [46.8691,-18.7669,0.0 ] } },
{ "type": "Feature", "properties": { "name": "Malawi", "zhname": "马拉维", "destnum": 197444, "orignum": 324543},      "geometry": { "type": "Point", "coordinates": [34.3015,-13.2543,0.0 ] } },
{ "type": "Feature", "properties": { "name": "Malaysia", "zhname": "马来西亚", "destnum": 3200840, "orignum": 1689315},      "geometry": { "type": "Point", "coordinates": [101.9758,4.2105,0.0 ] } },
{ "type": "Feature", "properties": { "name": "Maldives", "zhname": "马尔代夫", "destnum": 64709, "orignum": 3053},      "geometry": { "type": "Point", "coordinates": [73.2207,3.2028,0.0 ] } },
{ "type": "Feature", "properties": { "name": "Mali", "zhname": "马里", "destnum": 446184, "orignum": 1264709},      "geometry": { "type": "Point", "coordinates": [-3.9962,17.5707,0.0 ] } },
{ "type": "Feature", "properties": { "name": "Malta", "zhname": "马耳他", "destnum": 81106, "orignum": 111166},      "geometry": { "type": "Point", "coordinates": [14.3754,35.9375,0.0 ] } },
{ "type": "Feature", "properties": { "name": "Marshall Islands", "zhname": "马绍尔群岛", "destnum": 2935, "orignum": 8205},      "geometry": { "type": "Point", "coordinates": [171.1845,7.1315,0.0 ] } },
{ "type": "Feature", "properties": { "name": "Martinique", "zhname": "马提尼克", "destnum": 59917, "orignum": 13922},      "geometry": { "type": "Point", "coordinates": [61.0242,14.6415,0.0 ] } },
{ "type": "Feature", "properties": { "name": "Mauritania", "zhname": "毛里塔尼亚", "destnum": 167590, "orignum": 128509},      "geometry": { "type": "Point", "coordinates": [10.9408,21.0079,0.0 ] } },
{ "type": "Feature", "properties": { "name": "Mauritius", "zhname": "毛里求斯", "destnum": 27284, "orignum": 188406},      "geometry": { "type": "Point", "coordinates": [57.5522,-20.3484,0.0 ] } },
{ "type": "Feature", "properties": { "name": "Mayotte", "zhname": "马约特岛", "destnum": 73098, "orignum": 6617},      "geometry": { "type": "Point", "coordinates": [45.1662,-12.8275,0.0 ] } },
{ "type": "Feature", "properties": { "name": "Mexico", "zhname": "墨西哥", "destnum": 1038558, "orignum": 11796491},      "geometry": { "type": "Point", "coordinates": [-99.1332,19.4326,0.0 ] } },
{ "type": "Feature", "properties": { "name": "Micronesia (Federated States of)", "zhname": "密克罗尼西亚", "destnum": 976, "orignum": 21819},      "geometry": { "type": "Point", "coordinates": [150.5508,7.4256,0.0 ] } },
{ "type": "Feature", "properties": { "name": "Monaco", "zhname": "摩纳哥", "destnum": 13724, "orignum": 31453},      "geometry": { "type": "Point", "coordinates": [7.4246,43.7384,0.0 ] } },
{ "type": "Feature", "properties": { "name": "Mongolia", "zhname": "蒙古", "destnum": 20404, "orignum": 73494},      "geometry": { "type": "Point", "coordinates": [103.8467,46.8625,0.0 ] } },
{ "type": "Feature", "properties": { "name": "Montenegro", "zhname": "黑山", "destnum": 69992, "orignum": 153016},      "geometry": { "type": "Point", "coordinates": [19.3744,42.7087,0.0 ] } },
{ "type": "Feature", "properties": { "name": "Montserrat", "zhname": "蒙特色拉特岛", "destnum": 1133, "orignum": 22840},      "geometry": { "type": "Point", "coordinates": [-62.1874,16.7425,0.0 ] } },
{ "type": "Feature", "properties": { "name": "Morocco", "zhname": "摩洛哥", "destnum": 81757, "orignum": 3136340},      "geometry": { "type": "Point", "coordinates": [-7.0926,31.7917,0.0 ] } },
{ "type": "Feature", "properties": { "name": "Mozambique", "zhname": "莫桑比克", "destnum": 317809, "orignum": 1013421},      "geometry": { "type": "Point", "coordinates": [35.5296,-18.6657,0.0 ] } },
{ "type": "Feature", "properties": { "name": "Myanmar", "zhname": "缅甸", "destnum": 66204, "orignum": 3699504},      "geometry": { "type": "Point", "coordinates": [95.956,21.9162,0.0 ] } },
{ "type": "Feature", "properties": { "name": "Namibia", "zhname": "纳米比亚", "destnum": 105277, "orignum": 195519},      "geometry": { "type": "Point", "coordinates": [18.4904,-22.9576,0.0 ] } },
{ "type": "Feature", "properties": { "name": "Nauru", "zhname": "瑙鲁", "destnum": 1239, "orignum": 2421},      "geometry": { "type": "Point", "coordinates": [166.9315,-0.5228,0.0 ] } },
{ "type": "Feature", "properties": { "name": "Nepal", "zhname": "尼泊尔", "destnum": 478502, "orignum": 2285420},      "geometry": { "type": "Point", "coordinates": [84.124,28.3949,0.0 ] } },
{ "type": "Feature", "properties": { "name": "Netherlands", "zhname": "荷兰", "destnum": 2276551, "orignum": 981097},      "geometry": { "type": "Point", "coordinates": [5.2913,52.1326,0.0 ] } },
{ "type": "Feature", "properties": { "name": "New Caledonia", "zhname": "新喀里多尼亚", "destnum": 67891, "orignum": 4833},      "geometry": { "type": "Point", "coordinates": [165.618,-20.9043,0.0 ] } },
{ "type": "Feature", "properties": { "name": "New Zealand", "zhname": "新西兰", "destnum": 1026574, "orignum": 787715},      "geometry": { "type": "Point", "coordinates": [174.886,-40.9006,0.0 ] } },
{ "type": "Feature", "properties": { "name": "Nicaragua", "zhname": "尼加拉瓜", "destnum": 40165, "orignum": 693144},      "geometry": { "type": "Point", "coordinates": [-85.2072,12.8654,0.0 ] } },
{ "type": "Feature", "properties": { "name": "Niger", "zhname": "尼日尔", "destnum": 280929, "orignum": 392266},      "geometry": { "type": "Point", "coordinates": [8.0817,17.6078,0.0 ] } },
{ "type": "Feature", "properties": { "name": "Nigeria", "zhname": "尼日利亚", "destnum": 1127868, "orignum": 1473047},      "geometry": { "type": "Point", "coordinates": [8.6753,9.082,0.0 ] } },
{ "type": "Feature", "properties": { "name": "Niue", "zhname": "纽埃", "destnum": 529, "orignum": 5593},      "geometry": { "type": "Point", "coordinates": [-169.8672,-19.0544,0.0 ] } },
{ "type": "Feature", "properties": { "name": "Northern Mariana Islands", "zhname": "北马里亚纳群岛", "destnum": 20869, "orignum": 2764},      "geometry": { "type": "Point", "coordinates": [145.6739,15.0979,0.0 ] } },
{ "type": "Feature", "properties": { "name": "Norway", "zhname": "挪威", "destnum": 855945, "orignum": 205377},      "geometry": { "type": "Point", "coordinates": [8.4689,60.472,0.0 ] } },
{ "type": "Feature", "properties": { "name": "Oman", "zhname": "阿曼", "destnum": 2193435, "orignum": 22461},      "geometry": { "type": "Point", "coordinates": [55.9754,21.4735,0.0 ] } },
{ "type": "Feature", "properties": { "name": "Pakistan", "zhname": "巴基斯坦", "destnum": 3183094, "orignum": 6509984},      "geometry": { "type": "Point", "coordinates": [69.3451,30.3753,0.0 ] } },
{ "type": "Feature", "properties": { "name": "Palau", "zhname": "帕劳", "destnum": 4926, "orignum": 2650},      "geometry": { "type": "Point", "coordinates": [134.5825,7.515,0.0 ] } },
{ "type": "Feature", "properties": { "name": "Panama", "zhname": "巴拿马", "destnum": 184084, "orignum": 162258},      "geometry": { "type": "Point", "coordinates": [-79.5199,8.9824,0.0 ] } },
{ "type": "Feature", "properties": { "name": "Papua New Guinea", "zhname": "巴布亚新几内亚", "destnum": 30085, "orignum": 4753},      "geometry": { "type": "Point", "coordinates": [143.9555,-6.315,0.0 ] } },
{ "type": "Feature", "properties": { "name": "Paraguay", "zhname": "巴拉圭", "destnum": 156614, "orignum": 876638},      "geometry": { "type": "Point", "coordinates": [-58.4438,-23.4425,0.0 ] } },
{ "type": "Feature", "properties": { "name": "Peru", "zhname": "秘鲁", "destnum": 779323, "orignum": 1544212},      "geometry": { "type": "Point", "coordinates": [-75.0152,-9.19,0.0 ] } },
{ "type": "Feature", "properties": { "name": "Philippines", "zhname": "菲律宾", "destnum": 160806, "orignum": 5996161},      "geometry": { "type": "Point", "coordinates": [121.774,12.8797,0.0 ] } },
{ "type": "Feature", "properties": { "name": "Poland", "zhname": "波兰", "destnum": 648347, "orignum": 4571556},      "geometry": { "type": "Point", "coordinates": [19.1451,51.9194,0.0 ] } },
{ "type": "Feature", "properties": { "name": "Portugal", "zhname": "葡萄牙", "destnum": 884542, "orignum": 2155792},      "geometry": { "type": "Point", "coordinates": [-8.2245,39.3999,0.0 ] } },
{ "type": "Feature", "properties": { "name": "Puerto Rico", "zhname": "波多黎各", "destnum": 246417, "orignum": 1852458},      "geometry": { "type": "Point", "coordinates": [-66.5901,18.2208,0.0 ] } },
{ "type": "Feature", "properties": { "name": "Qatar", "zhname": "卡塔尔", "destnum": 2196373, "orignum": 26312},      "geometry": { "type": "Point", "coordinates": [51.1839,25.3548,0.0 ] } },
{ "type": "Feature", "properties": { "name": "Republic of Korea", "zhname": "韩国", "destnum": 1110642, "orignum": 2307369},      "geometry": { "type": "Point", "coordinates": [127.7669,35.9078,0.0 ] } },
{ "type": "Feature", "properties": { "name": "Republic of Moldova", "zhname": "摩尔多瓦共和国", "destnum": 99672, "orignum": 1029526},      "geometry": { "type": "Point", "coordinates": [28.3699,47.4116,0.0 ] } },
{ "type": "Feature", "properties": { "name": "Réunion", "zhname": "留尼汪", "destnum": 116349, "orignum": 3237},      "geometry": { "type": "Point", "coordinates": [55.5364,21.1151,0.0 ] } },
{ "type": "Feature", "properties": { "name": "Romania", "zhname": "罗马尼亚", "destnum": 445982, "orignum": 3650296},      "geometry": { "type": "Point", "coordinates": [24.9668,45.9432,0.0 ] } },
{ "type": "Feature", "properties": { "name": "Russian Federation", "zhname": "俄罗斯", "destnum": 11639894, "orignum": 10575205},      "geometry": { "type": "Point", "coordinates": [105.3188,61.523999999999994,0.0 ] } },
{ "type": "Feature", "properties": { "name": "Rwanda", "zhname": "卢旺达", "destnum": 530647, "orignum": 499213},      "geometry": { "type": "Point", "coordinates": [29.8739,-1.9403,0.0 ] } },
{ "type": "Feature", "properties": { "name": "Saint Helena", "zhname": "圣赫勒拿", "destnum": 360, "orignum": 6596},      "geometry": { "type": "Point", "coordinates": [-5.7167,-15.9333,0.0 ] } },
{ "type": "Feature", "properties": { "name": "Saint Kitts and Nevis", "zhname": "圣基茨与尼维斯联邦", "destnum": 3582, "orignum": 43687},      "geometry": { "type": "Point", "coordinates": [-62.783,17.3578,0.0 ] } },
{ "type": "Feature", "properties": { "name": "Saint Lucia", "zhname": "圣露西亚", "destnum": 7792, "orignum": 63618},      "geometry": { "type": "Point", "coordinates": [-60.9789,13.9094,0.0 ] } },
{ "type": "Feature", "properties": { "name": "Saint Pierre and Miquelon", "zhname": "圣皮埃尔和密克隆群岛", "destnum": 969, "orignum": 431},      "geometry": { "type": "Point", "coordinates": [-56.1806,46.7758,0.0 ] } },
{ "type": "Feature", "properties": { "name": "Saint Vincent and the Grenadines", "zhname": "圣文森特和格林纳丁斯", "destnum": 4392, "orignum": 67974},      "geometry": { "type": "Point", "coordinates": [-61.2872,12.9843,0.0 ] } },
{ "type": "Feature", "properties": { "name": "Samoa", "zhname": "萨摩亚", "destnum": 3665, "orignum": 124266},      "geometry": { "type": "Point", "coordinates": [-172.1046,-13.759,0.0 ] } },
{ "type": "Feature", "properties": { "name": "San Marino", "zhname": "圣马力诺", "destnum": 5197, "orignum": 2425},      "geometry": { "type": "Point", "coordinates": [12.4473,43.9356,0.0 ] } },
{ "type": "Feature", "properties": { "name": "Sao Tome and Principe", "zhname": "圣多美和普林西比", "destnum": 2121, "orignum": 37013},      "geometry": { "type": "Point", "coordinates": [6.6131,0.1864,0.0 ] } },
{ "type": "Feature", "properties": { "name": "Saudi Arabia", "zhname": "沙特阿拉伯", "destnum": 12680056, "orignum": 303904},      "geometry": { "type": "Point", "coordinates": [45.0792,23.8859,0.0 ] } },
{ "type": "Feature", "properties": { "name": "Senegal", "zhname": "塞内加尔", "destnum": 230851, "orignum": 650482},      "geometry": { "type": "Point", "coordinates": [-14.4524,14.4974,0.0 ] } },
{ "type": "Feature", "properties": { "name": "Serbia", "zhname": "塞尔维亚", "destnum": 819597, "orignum": 964670},      "geometry": { "type": "Point", "coordinates": [21.0059,44.0165,0.0 ] } },
{ "type": "Feature", "properties": { "name": "Seychelles", "zhname": "塞舌尔", "destnum": 12486, "orignum": 29921},      "geometry": { "type": "Point", "coordinates": [55.492,-4.6796,0.0 ] } },
{ "type": "Feature", "properties": { "name": "Sierra Leone", "zhname": "塞拉利昂", "destnum": 53441, "orignum": 154977},      "geometry": { "type": "Point", "coordinates": [-11.7799,8.4606,0.0 ] } },
{ "type": "Feature", "properties": { "name": "Singapore", "zhname": "新加坡", "destnum": 1916149, "orignum": 352236},      "geometry": { "type": "Point", "coordinates": [103.8198,1.3521,0.0 ] } },
{ "type": "Feature", "properties": { "name": "Sint Maarten (Dutch part)", "zhname": "荷属圣马丁", "destnum": 25832, "orignum": 27618},      "geometry": { "type": "Point", "coordinates": [-63.0333,18.0167,0.0 ] } },
{ "type": "Feature", "properties": { "name": "Slovakia", "zhname": "斯洛伐克", "destnum": 187321, "orignum": 357799},      "geometry": { "type": "Point", "coordinates": [19.699,48.669,0.0 ] } },
{ "type": "Feature", "properties": { "name": "Slovenia", "zhname": "斯洛文尼亚", "destnum": 228455, "orignum": 143805},      "geometry": { "type": "Point", "coordinates": [14.9955,46.1512,0.0 ] } },
{ "type": "Feature", "properties": { "name": "Solomon Islands", "zhname": "所罗门群岛", "destnum": 1956, "orignum": 4234},      "geometry": { "type": "Point", "coordinates": [160.1562,-9.6457,0.0 ] } },
{ "type": "Feature", "properties": { "name": "Somalia", "zhname": "索马里", "destnum": 26439, "orignum": 2068097},      "geometry": { "type": "Point", "coordinates": [46.1996,5.1521,0.0 ] } },
{ "type": "Feature", "properties": { "name": "South Africa", "zhname": "南非", "destnum": 3052965, "orignum": 863449},      "geometry": { "type": "Point", "coordinates": [22.9375,-30.5595,0.0 ] } },
{ "type": "Feature", "properties": { "name": "South Sudan", "zhname": "南苏丹", "destnum": 862984, "orignum": 2585218},      "geometry": { "type": "Point", "coordinates": [31.307,6.877000000000001,0.0 ] } },
{ "type": "Feature", "properties": { "name": "Spain", "zhname": "西班牙", "destnum": 6088477, "orignum": 1408947},      "geometry": { "type": "Point", "coordinates": [-3.7492,40.4637,0.0 ] } },
{ "type": "Feature", "properties": { "name": "Sri Lanka", "zhname": "斯里兰卡", "destnum": 38053, "orignum": 1910470},      "geometry": { "type": "Point", "coordinates": [80.7718,7.8731,0.0 ] } },
{ "type": "Feature", "properties": { "name": "State of Palestine", "zhname": "巴勒斯坦国", "destnum": 231086, "orignum": 3854370},      "geometry": { "type": "Point", "coordinates": [35.2332,31.9522,0.0 ] } },
{ "type": "Feature", "properties": { "name": "Sudan", "zhname": "苏丹", "destnum": 1196197, "orignum": 2040783},      "geometry": { "type": "Point", "coordinates": [30.2176,12.8628,0.0 ] } },
{ "type": "Feature", "properties": { "name": "Suriname", "zhname": "苏里南", "destnum": 27084, "orignum": 284568},      "geometry": { "type": "Point", "coordinates": [-56.0278,3.9193,0.0 ] } },
{ "type": "Feature", "properties": { "name": "Swaziland", "zhname": "斯威士兰", "destnum": 25089, "orignum": 97132},      "geometry": { "type": "Point", "coordinates": [31.4659,-26.5225,0.0 ] } },
{ "type": "Feature", "properties": { "name": "Sweden", "zhname": "瑞典", "destnum": 1910736, "orignum": 359772},      "geometry": { "type": "Point", "coordinates": [18.6435,60.1282,0.0 ] } },
{ "type": "Feature", "properties": { "name": "Switzerland", "zhname": "瑞士", "destnum": 2408222, "orignum": 699650},      "geometry": { "type": "Point", "coordinates": [8.2275,46.8182,0.0 ] } },
{ "type": "Feature", "properties": { "name": "Syrian Arab Republic", "zhname": "阿拉伯叙利亚共和国", "destnum": 800985, "orignum": 8274868},      "geometry": { "type": "Point", "coordinates": [38.9968,34.8021,0.0 ] } },
{ "type": "Feature", "properties": { "name": "Tajikistan", "zhname": "塔吉克斯坦", "destnum": 273773, "orignum": 579149},      "geometry": { "type": "Point", "coordinates": [71.2761,38.861,0.0 ] } },
{ "type": "Feature", "properties": { "name": "Thailand", "zhname": "泰国", "destnum": 3634200, "orignum": 979976},      "geometry": { "type": "Point", "coordinates": [100.9925,15.87,0.0 ] } },
{ "type": "Feature", "properties": { "name": "The former Yugoslav Republic of Macedonia", "zhname": "马其顿前南斯拉夫共和国", "destnum": 129635, "orignum": 667844},      "geometry": { "type": "Point", "coordinates": [21.7453,41.6086,0.0 ] } },
{ "type": "Feature", "properties": { "name": "Timor-Leste", "zhname": "东帝汶", "destnum": 7268, "orignum": 39202},      "geometry": { "type": "Point", "coordinates": [125.7275,-8.8742,0.0 ] } },
{ "type": "Feature", "properties": { "name": "Togo", "zhname": "多哥", "destnum": 257469, "orignum": 530849},      "geometry": { "type": "Point", "coordinates": [0.8248,8.6195,0.0 ] } },
{ "type": "Feature", "properties": { "name": "Tokelau", "zhname": "托克劳群岛", "destnum": 464, "orignum": 2242},      "geometry": { "type": "Point", "coordinates": [-171.8484,-9.2002,0.0 ] } },
{ "type": "Feature", "properties": { "name": "Tonga", "zhname": "汤加", "destnum": 1050, "orignum": 63652},      "geometry": { "type": "Point", "coordinates": [-175.1982,-21.179000000000002,0.0 ] } },
{ "type": "Feature", "properties": { "name": "Trinidad and Tobago", "zhname": "特立尼达和多巴哥", "destnum": 52124, "orignum": 400014},      "geometry": { "type": "Point", "coordinates": [-61.2225,10.6918,0.0 ] } },
{ "type": "Feature", "properties": { "name": "Tunisia", "zhname": "突尼斯", "destnum": 46316, "orignum": 831634},      "geometry": { "type": "Point", "coordinates": [9.5375,33.8869,0.0 ] } },
{ "type": "Feature", "properties": { "name": "Turkey", "zhname": "土耳其", "destnum": 5739123, "orignum": 3452507},      "geometry": { "type": "Point", "coordinates": [35.2433,38.9637,0.0 ] } },
{ "type": "Feature", "properties": { "name": "Turkmenistan", "zhname": "土库曼斯坦", "destnum": 191050, "orignum": 242863},      "geometry": { "type": "Point", "coordinates": [59.5563,38.9697,0.0 ] } },
{ "type": "Feature", "properties": { "name": "Turks and Caicos Islands", "zhname": "特克斯和凯科斯群岛", "destnum": 19175, "orignum": 2753},      "geometry": { "type": "Point", "coordinates": [-71.7979,21.694000000000003,0.0 ] } },
{ "type": "Feature", "properties": { "name": "Tuvalu", "zhname": "图瓦卢", "destnum": 130, "orignum": 3276},      "geometry": { "type": "Point", "coordinates": [177.6493,-7.1095,0.0 ] } },
{ "type": "Feature", "properties": { "name": "Uganda", "zhname": "乌干达", "destnum": 1731631, "orignum": 748489},      "geometry": { "type": "Point", "coordinates": [32.2903,1.3733,0.0 ] } },
{ "type": "Feature", "properties": { "name": "Ukraine", "zhname": "乌克兰", "destnum": 4540781, "orignum": 5978783},      "geometry": { "type": "Point", "coordinates": [31.1656,48.3794,0.0 ] } },
{ "type": "Feature", "properties": { "name": "United Arab Emirates", "zhname": "阿联酋", "destnum": 8326184, "orignum": 162747},      "geometry": { "type": "Point", "coordinates": [53.8478,23.4241,0.0 ] } },
{ "type": "Feature", "properties": { "name": "United Kingdom of Great Britain and Northern Ireland", "zhname": "英国", "destnum": 9491593, "orignum": 4729088},      "geometry": { "type": "Point", "coordinates": [-3.4360000000000004,55.3781,0.0 ] } },
{ "type": "Feature", "properties": { "name": "United Republic of Tanzania", "zhname": "坦桑尼亚联合共和国", "destnum": 472335, "orignum": 322834},      "geometry": { "type": "Point", "coordinates": [34.8888,-6.369,0.0 ] } },
{ "type": "Feature", "properties": { "name": "United States of America", "zhname": "美国", "destnum": 48065741, "orignum": 2907648},      "geometry": { "type": "Point", "coordinates": [-95.7129,37.0902,0.0 ] } },
{ "type": "Feature", "properties": { "name": "United States Virgin Islands", "zhname": "美属维尔京群岛", "destnum": 55571, "orignum": 4100},      "geometry": { "type": "Point", "coordinates": [-64.8963,18.3358,0.0 ] } },
{ "type": "Feature", "properties": { "name": "Uruguay", "zhname": "乌拉圭", "destnum": 75159, "orignum": 371169},      "geometry": { "type": "Point", "coordinates": [-55.7658,-32.5228,0.0 ] } },
{ "type": "Feature", "properties": { "name": "Uzbekistan", "zhname": "乌兹别克斯坦", "destnum": 1091677, "orignum": 1986227},      "geometry": { "type": "Point", "coordinates": [64.5853,41.3775,0.0 ] } },
{ "type": "Feature", "properties": { "name": "Vanuatu", "zhname": "瓦努阿图", "destnum": 2315, "orignum": 7346},      "geometry": { "type": "Point", "coordinates": [166.9592,-15.3767,0.0 ] } },
{ "type": "Feature", "properties": { "name": "Venezuela (Bolivarian Republic of)", "zhname": "委内瑞拉", "destnum": 1375448, "orignum": 2534976},      "geometry": { "type": "Point", "coordinates": [-66.5897,6.4238,0.0 ] } },
{ "type": "Feature", "properties": { "name": "Viet Nam", "zhname": "越南", "destnum": 70549, "orignum": 2857438},      "geometry": { "type": "Point", "coordinates": [108.2772,14.0583,0.0 ] } },
{ "type": "Feature", "properties": { "name": "Wallis and Futuna Islands", "zhname": "瓦利斯群岛和富图纳群岛", "destnum": 1011, "orignum": 11820},      "geometry": { "type": "Point", "coordinates": [-178.1165,-14.2938,0.0 ] } },
{ "type": "Feature", "properties": { "name": "Western Sahara", "zhname": "西撒哈拉", "destnum": 5160, "orignum": 195572},      "geometry": { "type": "Point", "coordinates": [-12.8858,24.2155,0.0 ] } },
{ "type": "Feature", "properties": { "name": "Yemen", "zhname": "也门", "destnum": 350749, "orignum": 1248711},      "geometry": { "type": "Point", "coordinates": [48.5164,15.5527,0.0 ] } },
{ "type": "Feature", "properties": { "name": "Zambia", "zhname": "赞比亚", "destnum": 150705, "orignum": 317444},      "geometry": { "type": "Point", "coordinates": [27.8493,-13.1339,0.0 ] } },
{ "type": "Feature", "properties": { "name": "Zimbabwe", "zhname": "津巴布韦", "destnum": 295959, "orignum": 941690},      "geometry": { "type": "Point", "coordinates": [29.1549,-19.0154,0.0 ] } }
]
}