{
"type": "FeatureCollection",
"crs": { "type": "name", "properties": { "name": "urn:ogc:def:crs:OGC:1.3:CRS84" } },
"features": [
{ "type": "Feature", "properties": { "name": "Afghanistan", "zhname": "阿富汗", "destnum": 56110, "orignum": 2728785},      "geometry": { "type": "Point", "coordinates": [67.71,33.9391,0.0 ] } },
{ "type": "Feature", "properties": { "name": "Albania", "zhname": "阿尔巴尼亚", "destnum": 22462, "orignum": 619182},      "geometry": { "type": "Point", "coordinates": [20.1683,41.1533,0.0 ] } },
{ "type": "Feature", "properties": { "name": "Algeria", "zhname": "阿尔及利亚", "destnum": 127469, "orignum": 1041695},      "geometry": { "type": "Point", "coordinates": [1.6596,28.0339,0.0 ] } },
{ "type": "Feature", "properties": { "name": "American Samoa", "zhname": "美属萨摩亚群岛", "destnum": 11728, "orignum": 912},      "geometry": { "type": "Point", "coordinates": [-170.1322,-14.270999999999999,0.0 ] } },
{ "type": "Feature", "properties": { "name": "Andorra", "zhname": "安道尔", "destnum": 22121, "orignum": 4326},      "geometry": { "type": "Point", "coordinates": [1.5218,42.5063,0.0 ] } },
{ "type": "Feature", "properties": { "name": "Angola", "zhname": "安哥拉", "destnum": 91291, "orignum": 325565},      "geometry": { "type": "Point", "coordinates": [17.8739,-11.2027,0.0 ] } },
{ "type": "Feature", "properties": { "name": "Anguilla", "zhname": "安圭拉", "destnum": 2215, "orignum": 1409},      "geometry": { "type": "Point", "coordinates": [-63.0686,18.2206,0.0 ] } },
{ "type": "Feature", "properties": { "name": "Antigua and Barbuda", "zhname": "安提瓜和巴布达岛", "destnum": 12826, "orignum": 24957},      "geometry": { "type": "Point", "coordinates": [-61.7964,17.0608,0.0 ] } },
{ "type": "Feature", "properties": { "name": "Argentina", "zhname": "阿根廷", "destnum": 997632, "orignum": 490127},      "geometry": { "type": "Point", "coordinates": [-63.6167,-38.4161,0.0 ] } },
{ "type": "Feature", "properties": { "name": "Armenia", "zhname": "亚美尼亚", "destnum": 69815, "orignum": 517302},      "geometry": { "type": "Point", "coordinates": [45.0382,40.0691,0.0 ] } },
{ "type": "Feature", "properties": { "name": "Aruba", "zhname": "阿鲁巴", "destnum": 15478, "orignum": 8654},      "geometry": { "type": "Point", "coordinates": [-69.9683,12.5211,0.0 ] } },
{ "type": "Feature", "properties": { "name": "Australia", "zhname": "澳大利亚", "destnum": 3690797, "orignum": 277461},      "geometry": { "type": "Point", "coordinates": [133.7751,-25.2744,0.0 ] } },
{ "type": "Feature", "properties": { "name": "Austria", "zhname": "奥地利", "destnum": 873536, "orignum": 268094},      "geometry": { "type": "Point", "coordinates": [14.5501,47.5162,0.0 ] } },
{ "type": "Feature", "properties": { "name": "Azerbaijan", "zhname": "阿塞拜疆", "destnum": 120414, "orignum": 622051},      "geometry": { "type": "Point", "coordinates": [47.5769,40.1431,0.0 ] } },
{ "type": "Feature", "properties": { "name": "Bahamas", "zhname": "巴哈马", "destnum": 31292, "orignum": 19382},      "geometry": { "type": "Point", "coordinates": [-77.3963,25.0343,0.0 ] } },
{ "type": "Feature", "properties": { "name": "Bahrain", "zhname": "巴林", "destnum": 531045, "orignum": 24221},      "geometry": { "type": "Point", "coordinates": [50.5577,26.0667,0.0 ] } },
{ "type": "Feature", "properties": { "name": "Bangladesh", "zhname": "孟加拉国", "destnum": 1025820, "orignum": 5216213},      "geometry": { "type": "Point", "coordinates": [90.3563,23.685,0.0 ] } },
{ "type": "Feature", "properties": { "name": "Barbados", "zhname": "巴巴多斯", "destnum": 8794, "orignum": 52107},      "geometry": { "type": "Point", "coordinates": [-59.5432,13.1939,0.0 ] } },
{ "type": "Feature", "properties": { "name": "Belarus", "zhname": "白俄罗斯", "destnum": 489560, "orignum": 629785},      "geometry": { "type": "Point", "coordinates": [27.9534,53.7098,0.0 ] } },
{ "type": "Feature", "properties": { "name": "Belgium", "zhname": "比利时", "destnum": 928369, "orignum": 277126},      "geometry": { "type": "Point", "coordinates": [4.4699,50.5039,0.0 ] } },
{ "type": "Feature", "properties": { "name": "Belize", "zhname": "伯利兹", "destnum": 29444, "orignum": 28354},      "geometry": { "type": "Point", "coordinates": [-88.4976,17.1899,0.0 ] } },
{ "type": "Feature", "properties": { "name": "Benin", "zhname": "贝宁", "destnum": 162156, "orignum": 358733},      "geometry": { "type": "Point", "coordinates": [2.3158,9.3077,0.0 ] } },
{ "type": "Feature", "properties": { "name": "Bermuda", "zhname": "百慕大", "destnum": 8908, "orignum": 8868},      "geometry": { "type": "Point", "coordinates": [-64.7505,32.3078,0.0 ] } },
{ "type": "Feature", "properties": { "name": "Bhutan", "zhname": "不丹", "destnum": 41803, "orignum": 25248},      "geometry": { "type": "Point", "coordinates": [90.4336,27.5142,0.0 ] } },
{ "type": "Feature", "properties": { "name": "Bolivia (Plurinational State of)", "zhname": "玻利维亚", "destnum": 79813, "orignum": 416061},      "geometry": { "type": "Point", "coordinates": [-63.5887,-16.2902,0.0 ] } },
{ "type": "Feature", "properties": { "name": "Bonaire, Sint Eustatius and Saba", "zhname": "博内尔", "destnum": 7109, "orignum": 5963},      "geometry": { "type": "Point", "coordinates": [68.2624,12.2019,0.0 ] } },
{ "type": "Feature", "properties": { "name": "Bosnia and Herzegovina", "zhname": "波斯尼亚和黑塞哥维那", "destnum": 16615, "orignum": 801762},      "geometry": { "type": "Point", "coordinates": [17.6791,43.9159,0.0 ] } },
{ "type": "Feature", "properties": { "name": "Botswana", "zhname": "博茨瓦纳", "destnum": 60208, "orignum": 51059},      "geometry": { "type": "Point", "coordinates": [24.6849,-22.3285,0.0 ] } },
{ "type": "Feature", "properties": { "name": "Brazil", "zhname": "巴西", "destnum": 420941, "orignum": 737992},      "geometry": { "type": "Point", "coordinates": [-51.9253,-14.235,0.0 ] } },
{ "type": "Feature", "properties": { "name": "British Virgin Islands", "zhname": "英属维尔京群岛", "destnum": 8654, "orignum": 2399},      "geometry": { "type": "Point", "coordinates": [-64.64,18.4207,0.0 ] } },
{ "type": "Feature", "properties": { "name": "Brunei Darussalam", "zhname": "文莱达鲁萨兰国", "destnum": 62032, "orignum": 27612},      "geometry": { "type": "Point", "coordinates": [114.7277,4.5353,0.0 ] } },
{ "type": "Feature", "properties": { "name": "Bulgaria", "zhname": "保加利亚", "destnum": 81403, "orignum": 666516},      "geometry": { "type": "Point", "coordinates": [25.4858,42.7339,0.0 ] } },
{ "type": "Feature", "properties": { "name": "Burkina Faso", "zhname": "布基纳法索", "destnum": 318116, "orignum": 884065},      "geometry": { "type": "Point", "coordinates": [-1.5616,12.2383,0.0 ] } },
{ "type": "Feature", "properties": { "name": "Burundi", "zhname": "布隆迪", "destnum": 143029, "orignum": 306332},      "geometry": { "type": "Point", "coordinates": [29.9189,-3.3731,0.0 ] } },
{ "type": "Feature", "properties": { "name": "Cabo Verde", "zhname": "佛得角", "destnum": 7153, "orignum": 83574},      "geometry": { "type": "Point", "coordinates": [23.0418,16.5388,0.0 ] } },
{ "type": "Feature", "properties": { "name": "Cambodia", "zhname": "柬埔寨", "destnum": 40563, "orignum": 509405},      "geometry": { "type": "Point", "coordinates": [104.991,12.5657,0.0 ] } },
{ "type": "Feature", "properties": { "name": "Cameroon", "zhname": "喀麦隆", "destnum": 243186, "orignum": 188962},      "geometry": { "type": "Point", "coordinates": [12.3547,7.3697,0.0 ] } },
{ "type": "Feature", "properties": { "name": "Canada", "zhname": "加拿大", "destnum": 3784252, "orignum": 510314},      "geometry": { "type": "Point", "coordinates": [-106.3468,56.1304,0.0 ] } },
{ "type": "Feature", "properties": { "name": "Cayman Islands", "zhname": "开曼群岛", "destnum": 14784, "orignum": 902},      "geometry": { "type": "Point", "coordinates": [-81.2546,19.3133,0.0 ] } },
{ "type": "Feature", "properties": { "name": "Central African Republic", "zhname": "中非共和国", "destnum": 33596, "orignum": 385710},      "geometry": { "type": "Point", "coordinates": [20.9394,6.6111,0.0 ] } },
{ "type": "Feature", "properties": { "name": "Chad", "zhname": "乍得", "destnum": 227402, "orignum": 111901},      "geometry": { "type": "Point", "coordinates": [18.7322,15.4542,0.0 ] } },
{ "type": "Feature", "properties": { "name": "Channel Islands", "zhname": "海峡群岛", "destnum": 38540, "orignum": 10820},      "geometry": { "type": "Point", "coordinates": [2.2052,49.2327,0.0 ] } },
{ "type": "Feature", "properties": { "name": "Chile", "zhname": "智利", "destnum": 442929, "orignum": 305869},      "geometry": { "type": "Point", "coordinates": [-71.543,-35.6751,0.0 ] } },
{ "type": "Feature", "properties": { "name": "China", "zhname": "中国", "destnum": 533675, "orignum": 4970636},      "geometry": { "type": "Point", "coordinates": [104.1954,35.8617,0.0 ] } },
{ "type": "Feature", "properties": { "name": "China, Hong Kong Special Administrative Region", "zhname": "中国香港", "destnum": 1130838, "orignum": 577288},      "geometry": { "type": "Point", "coordinates": [114.1095,22.3964,0.0 ] } },
{ "type": "Feature", "properties": { "name": "China, Macao Special Administrative Region", "zhname": "中国澳门", "destnum": 165770, "orignum": 71909},      "geometry": { "type": "Point", "coordinates": [113.5439,22.1987,0.0 ] } },
{ "type": "Feature", "properties": { "name": "Colombia", "zhname": "哥伦比亚", "destnum": 574986, "orignum": 1308010},      "geometry": { "type": "Point", "coordinates": [-74.2973,4.5709,0.0 ] } },
{ "type": "Feature", "properties": { "name": "Comoros", "zhname": "科摩罗", "destnum": 5355, "orignum": 58787},      "geometry": { "type": "Point", "coordinates": [43.3333,-11.6455,0.0 ] } },
{ "type": "Feature", "properties": { "name": "Congo", "zhname": "刚果", "destnum": 215419, "orignum": 120947},      "geometry": { "type": "Point", "coordinates": [21.7587,-4.0383,0.0 ] } },
{ "type": "Feature", "properties": { "name": "Cook Islands", "zhname": "库克群岛", "destnum": 1407, "orignum": 11115},      "geometry": { "type": "Point", "coordinates": [-159.7777,-21.2367,0.0 ] } },
{ "type": "Feature", "properties": { "name": "Costa Rica", "zhname": "哥斯达黎加", "destnum": 194866, "orignum": 63755},      "geometry": { "type": "Point", "coordinates": [-84.0907,9.9281,0.0 ] } },
{ "type": "Feature", "properties": { "name": "Cote d'Ivoire", "zhname": "科特迪瓦", "destnum": 1373129, "orignum": 551589},      "geometry": { "type": "Point", "coordinates": [-5.5471,7.54,0.0 ] } },
{ "type": "Feature", "properties": { "name": "Croatia", "zhname": "克罗地亚", "destnum": 236953, "orignum": 478540},      "geometry": { "type": "Point", "coordinates": [15.2,45.1,0.0 ] } },
{ "type": "Feature", "properties": { "name": "Cuba", "zhname": "古巴", "destnum": 1768, "orignum": 769052},      "geometry": { "type": "Point", "coordinates": [-77.7812,21.5218,0.0 ] } },
{ "type": "Feature", "properties": { "name": "Curacao", "zhname": "库拉索岛", "destnum": 16497, "orignum": 40522},      "geometry": { "type": "Point", "coordinates": [-68.99,12.1696,0.0 ] } },
{ "type": "Feature", "properties": { "name": "Cyprus", "zhname": "塞浦路斯", "destnum": 84053, "orignum": 106278},      "geometry": { "type": "Point", "coordinates": [33.4299,35.1264,0.0 ] } },
{ "type": "Feature", "properties": { "name": "Czech Republic", "zhname": "捷克", "destnum": 293245, "orignum": 402492},      "geometry": { "type": "Point", "coordinates": [15.472999999999999,49.8175,0.0 ] } },
{ "type": "Feature", "properties": { "name": "Democratic People's Republic of Korea", "zhname": "朝鲜", "destnum": 23498, "orignum": 59204},      "geometry": { "type": "Point", "coordinates": [127.5101,40.3399,0.0 ] } },
{ "type": "Feature", "properties": { "name": "Democratic Republic of the Congo", "zhname": "民主刚果", "destnum": 454561, "orignum": 833029},      "geometry": { "type": "Point", "coordinates": [21.7587,-4.0383,0.0 ] } },
{ "type": "Feature", "properties": { "name": "Denmark", "zhname": "丹麦", "destnum": 357366, "orignum": 120724},      "geometry": { "type": "Point", "coordinates": [9.5018,56.2639,0.0 ] } },
{ "type": "Feature", "properties": { "name": "Djibouti", "zhname": "吉布提", "destnum": 56807, "orignum": 9491},      "geometry": { "type": "Point", "coordinates": [42.5903,11.8251,0.0 ] } },
{ "type": "Feature", "properties": { "name": "Dominica", "zhname": "多米尼加", "destnum": 3464, "orignum": 32854},      "geometry": { "type": "Point", "coordinates": [-61.371,15.415,0.0 ] } },
{ "type": "Feature", "properties": { "name": "Dominican Republic", "zhname": "多明尼加共和国", "destnum": 360341, "orignum": 643958},      "geometry": { "type": "Point", "coordinates": [-70.1627,18.7357,0.0 ] } },
{ "type": "Feature", "properties": { "name": "Ecuador", "zhname": "厄瓜多尔", "destnum": 159758, "orignum": 557747},      "geometry": { "type": "Point", "coordinates": [-78.1834,-1.8312,0.0 ] } },
{ "type": "Feature", "properties": { "name": "Egypt", "zhname": "埃及", "destnum": 258468, "orignum": 2295425},      "geometry": { "type": "Point", "coordinates": [30.8025,26.8206,0.0 ] } },
{ "type": "Feature", "properties": { "name": "El Salvador", "zhname": "萨尔瓦多", "destnum": 20192, "orignum": 795952},      "geometry": { "type": "Point", "coordinates": [-88.8965,13.7942,0.0 ] } },
{ "type": "Feature", "properties": { "name": "Equatorial Guinea", "zhname": "赤道几内亚", "destnum": 5143, "orignum": 67324},      "geometry": { "type": "Point", "coordinates": [10.2679,1.6508,0.0 ] } },
{ "type": "Feature", "properties": { "name": "Eritrea", "zhname": "厄立特里亚", "destnum": 7767, "orignum": 400950},      "geometry": { "type": "Point", "coordinates": [39.7823,15.1794,0.0 ] } },
{ "type": "Feature", "properties": { "name": "Estonia", "zhname": "爱沙尼亚", "destnum": 80594, "orignum": 93795},      "geometry": { "type": "Point", "coordinates": [25.0136,58.5953,0.0 ] } },
{ "type": "Feature", "properties": { "name": "Ethiopia", "zhname": "埃塞俄比亚", "destnum": 625484, "orignum": 463581},      "geometry": { "type": "Point", "coordinates": [40.4897,9.145,0.0 ] } },
{ "type": "Feature", "properties": { "name": "Faeroe Islands", "zhname": "法罗群岛", "destnum": 1013, "orignum": 689},      "geometry": { "type": "Point", "coordinates": [-6.9118,61.8926,0.0 ] } },
{ "type": "Feature", "properties": { "name": "Falkland Islands (Malvinas)", "zhname": "福克兰群岛", "destnum": 3089, "orignum": 5921},      "geometry": { "type": "Point", "coordinates": [-59.5236,-51.7963,0.0 ] } },
{ "type": "Feature", "properties": { "name": "Fiji", "zhname": "斐济", "destnum": 6601, "orignum": 105570},      "geometry": { "type": "Point", "coordinates": [178.065,-17.7134,0.0 ] } },
{ "type": "Feature", "properties": { "name": "Finland", "zhname": "芬兰", "destnum": 195143, "orignum": 112375},      "geometry": { "type": "Point", "coordinates": [25.7482,61.9241,0.0 ] } },
{ "type": "Feature", "properties": { "name": "France", "zhname": "法国", "destnum": 4019290, "orignum": 1122781},      "geometry": { "type": "Point", "coordinates": [2.2137,46.2276,0.0 ] } },
{ "type": "Feature", "properties": { "name": "French Guiana", "zhname": "法属圭亚那", "destnum": 54506, "orignum": 1966},      "geometry": { "type": "Point", "coordinates": [53.1258,3.9339,0.0 ] } },
{ "type": "Feature", "properties": { "name": "French Polynesia", "zhname": "法属玻里尼西亚", "destnum": 15686, "orignum": 1103},      "geometry": { "type": "Point", "coordinates": [-149.4068,-17.6797,0.0 ] } },
{ "type": "Feature", "properties": { "name": "Gabon", "zhname": "加蓬", "destnum": 257135, "orignum": 22351},      "geometry": { "type": "Point", "coordinates": [11.6094,-0.8037,0.0 ] } },
{ "type": "Feature", "properties": { "name": "Gambia", "zhname": "冈比亚", "destnum": 109795, "orignum": 77979},      "geometry": { "type": "Point", "coordinates": [-15.3101,13.4432,0.0 ] } },
{ "type": "Feature", "properties": { "name": "Georgia", "zhname": "格鲁吉亚", "destnum": 33387, "orignum": 425131},      "geometry": { "type": "Point", "coordinates": [43.3569,42.3154,0.0 ] } },
{ "type": "Feature", "properties": { "name": "Germany", "zhname": "德国", "destnum": 6817652, "orignum": 1870506},      "geometry": { "type": "Point", "coordinates": [10.4515,51.1657,0.0 ] } },
{ "type": "Feature", "properties": { "name": "Ghana", "zhname": "加纳", "destnum": 218246, "orignum": 510404},      "geometry": { "type": "Point", "coordinates": [-1.0232,7.9465,0.0 ] } },
{ "type": "Feature", "properties": { "name": "Gibraltar", "zhname": "直布罗陀", "destnum": 4447, "orignum": 6970},      "geometry": { "type": "Point", "coordinates": [-5.3536,36.1408,0.0 ] } },
{ "type": "Feature", "properties": { "name": "Greece", "zhname": "希腊", "destnum": 560208, "orignum": 543312},      "geometry": { "type": "Point", "coordinates": [21.8243,39.0742,0.0 ] } },
{ "type": "Feature", "properties": { "name": "Greenland", "zhname": "格陵兰岛", "destnum": 3583, "orignum": 7982},      "geometry": { "type": "Point", "coordinates": [-42.6043,71.7069,0.0 ] } },
{ "type": "Feature", "properties": { "name": "Grenada", "zhname": "格林纳达", "destnum": 2365, "orignum": 33008},      "geometry": { "type": "Point", "coordinates": [-61.678999999999995,12.1165,0.0 ] } },
{ "type": "Feature", "properties": { "name": "Guadeloupe", "zhname": "瓜德罗普岛", "destnum": 42024, "orignum": 4821},      "geometry": { "type": "Point", "coordinates": [61.551,16.265,0.0 ] } },
{ "type": "Feature", "properties": { "name": "Guam", "zhname": "关岛", "destnum": 39845, "orignum": 999},      "geometry": { "type": "Point", "coordinates": [144.7937,13.4443,0.0 ] } },
{ "type": "Feature", "properties": { "name": "Guatemala", "zhname": "危地马拉", "destnum": 37023, "orignum": 595851},      "geometry": { "type": "Point", "coordinates": [-90.5069,14.6349,0.0 ] } },
{ "type": "Feature", "properties": { "name": "Guinea", "zhname": "几内亚", "destnum": 64907, "orignum": 298347},      "geometry": { "type": "Point", "coordinates": [-9.6966,9.9456,0.0 ] } },
{ "type": "Feature", "properties": { "name": "Guinea-Bissau", "zhname": "几内亚比绍", "destnum": 12175, "orignum": 54776},      "geometry": { "type": "Point", "coordinates": [-15.1804,11.8037,0.0 ] } },
{ "type": "Feature", "properties": { "name": "Guyana", "zhname": "圭亚那", "destnum": 8021, "orignum": 238880},      "geometry": { "type": "Point", "coordinates": [-58.9302,4.8604,0.0 ] } },
{ "type": "Feature", "properties": { "name": "Haiti", "zhname": "海地", "destnum": 9695, "orignum": 856250},      "geometry": { "type": "Point", "coordinates": [-72.2852,18.9712,0.0 ] } },
{ "type": "Feature", "properties": { "name": "Holy See", "zhname": "梵蒂冈", "destnum": 0, "orignum": 95},      "geometry": { "type": "Point", "coordinates": [12.4534,41.9029,0.0 ] } },
{ "type": "Feature", "properties": { "name": "Honduras", "zhname": "洪都拉斯", "destnum": 20308, "orignum": 328710},      "geometry": { "type": "Point", "coordinates": [-86.2419,15.2,0.0 ] } },
{ "type": "Feature", "properties": { "name": "Hungary", "zhname": "匈牙利", "destnum": 246720, "orignum": 315888},      "geometry": { "type": "Point", "coordinates": [19.5033,47.1625,0.0 ] } },
{ "type": "Feature", "properties": { "name": "Iceland", "zhname": "冰岛", "destnum": 26871, "orignum": 20783},      "geometry": { "type": "Point", "coordinates": [-19.0208,64.9631,0.0 ] } },
{ "type": "Feature", "properties": { "name": "India", "zhname": "印度", "destnum": 2636113, "orignum": 11444272},      "geometry": { "type": "Point", "coordinates": [78.9629,20.5937,0.0 ] } },
{ "type": "Feature", "properties": { "name": "Indonesia", "zhname": "印度尼西亚", "destnum": 180225, "orignum": 2492075},      "geometry": { "type": "Point", "coordinates": [113.9213,-0.7893,0.0 ] } },
{ "type": "Feature", "properties": { "name": "Iran (Islamic Republic of)", "zhname": "伊朗", "destnum": 1284511, "orignum": 702668},      "geometry": { "type": "Point", "coordinates": [53.688,32.4279,0.0 ] } },
{ "type": "Feature", "properties": { "name": "Iraq", "zhname": "伊拉克", "destnum": 198897, "orignum": 1039132},      "geometry": { "type": "Point", "coordinates": [43.6793,33.2232,0.0 ] } },
{ "type": "Feature", "properties": { "name": "Ireland", "zhname": "爱尔兰", "destnum": 414452, "orignum": 372450},      "geometry": { "type": "Point", "coordinates": [-7.6921,53.1424,0.0 ] } },
{ "type": "Feature", "properties": { "name": "Isle of Man", "zhname": "英属地曼岛", "destnum": 18375, "orignum": 6256},      "geometry": { "type": "Point", "coordinates": [-4.5481,54.2361,0.0 ] } },
{ "type": "Feature", "properties": { "name": "Israel", "zhname": "以色列", "destnum": 623202, "orignum": 190683},      "geometry": { "type": "Point", "coordinates": [34.8516,31.0461,0.0 ] } },
{ "type": "Feature", "properties": { "name": "Italy", "zhname": "意大利", "destnum": 2885799, "orignum": 1645383},      "geometry": { "type": "Point", "coordinates": [12.5674,41.8719,0.0 ] } },
{ "type": "Feature", "properties": { "name": "Jamaica", "zhname": "牙买加", "destnum": 10616, "orignum": 473877},      "geometry": { "type": "Point", "coordinates": [-77.2975,18.1096,0.0 ] } },
{ "type": "Feature", "properties": { "name": "Japan", "zhname": "日本", "destnum": 1091894, "orignum": 378889},      "geometry": { "type": "Point", "coordinates": [138.2529,36.2048,0.0 ] } },
{ "type": "Feature", "properties": { "name": "Jordan", "zhname": "约旦", "destnum": 1673776, "orignum": 500347},      "geometry": { "type": "Point", "coordinates": [36.2384,30.5852,0.0 ] } },
{ "type": "Feature", "properties": { "name": "Kazakhstan", "zhname": "哈萨克斯坦", "destnum": 1700493, "orignum": 1865459},      "geometry": { "type": "Point", "coordinates": [66.9237,48.0196,0.0 ] } },
{ "type": "Feature", "properties": { "name": "Kenya", "zhname": "肯尼亚", "destnum": 484429, "orignum": 247290},      "geometry": { "type": "Point", "coordinates": [37.9062,-0.0236,0.0 ] } },
{ "type": "Feature", "properties": { "name": "Kiribati", "zhname": "基里巴斯", "destnum": 1328, "orignum": 2138},      "geometry": { "type": "Point", "coordinates": [168.734,-3.3704,0.0 ] } },
{ "type": "Feature", "properties": { "name": "Kuwait", "zhname": "科威特", "destnum": 1938512, "orignum": 124825},      "geometry": { "type": "Point", "coordinates": [47.9774,29.3759,0.0 ] } },
{ "type": "Feature", "properties": { "name": "Kyrgyzstan", "zhname": "吉尔吉斯斯坦", "destnum": 79082, "orignum": 362029},      "geometry": { "type": "Point", "coordinates": [74.7661,41.2044,0.0 ] } },
{ "type": "Feature", "properties": { "name": "Lao People's Democratic Republic", "zhname": "老挝", "destnum": 28676, "orignum": 596250},      "geometry": { "type": "Point", "coordinates": [102.4955,19.8563,0.0 ] } },
{ "type": "Feature", "properties": { "name": "Latvia", "zhname": "拉脱维亚", "destnum": 93396, "orignum": 148961},      "geometry": { "type": "Point", "coordinates": [24.6032,56.8796,0.0 ] } },
{ "type": "Feature", "properties": { "name": "Lebanon", "zhname": "黎巴嫩", "destnum": 895152, "orignum": 499630},      "geometry": { "type": "Point", "coordinates": [35.8623,33.8547,0.0 ] } },
{ "type": "Feature", "properties": { "name": "Lesotho", "zhname": "莱索托", "destnum": 2181, "orignum": 176043},      "geometry": { "type": "Point", "coordinates": [28.2336,-29.61,0.0 ] } },
{ "type": "Feature", "properties": { "name": "Liberia", "zhname": "利比里亚", "destnum": 48143, "orignum": 109448},      "geometry": { "type": "Point", "coordinates": [-9.4295,6.4281,0.0 ] } },
{ "type": "Feature", "properties": { "name": "Libya", "zhname": "利比亚", "destnum": 582673, "orignum": 98609},      "geometry": { "type": "Point", "coordinates": [17.2283,26.3351,0.0 ] } },
{ "type": "Feature", "properties": { "name": "Liechtenstein", "zhname": "列支敦斯登", "destnum": 11989, "orignum": 1659},      "geometry": { "type": "Point", "coordinates": [9.5554,47.166000000000004,0.0 ] } },
{ "type": "Feature", "properties": { "name": "Lithuania", "zhname": "立陶宛", "destnum": 49069, "orignum": 273752},      "geometry": { "type": "Point", "coordinates": [23.8813,55.1694,0.0 ] } },
{ "type": "Feature", "properties": { "name": "Luxembourg", "zhname": "卢森堡", "destnum": 148646, "orignum": 37164},      "geometry": { "type": "Point", "coordinates": [6.1319,49.6116,0.0 ] } },
{ "type": "Feature", "properties": { "name": "Madagascar", "zhname": "马达加斯加", "destnum": 14541, "orignum": 71206},      "geometry": { "type": "Point", "coordinates": [46.8691,-18.7669,0.0 ] } },
{ "type": "Feature", "properties": { "name": "Malawi", "zhname": "马拉维", "destnum": 93388, "orignum": 200448},      "geometry": { "type": "Point", "coordinates": [34.3015,-13.2543,0.0 ] } },
{ "type": "Feature", "properties": { "name": "Malaysia", "zhname": "马来西亚", "destnum": 1948385, "orignum": 733326},      "geometry": { "type": "Point", "coordinates": [101.9758,4.2105,0.0 ] } },
{ "type": "Feature", "properties": { "name": "Maldives", "zhname": "马尔代夫", "destnum": 58040, "orignum": 1420},      "geometry": { "type": "Point", "coordinates": [73.2207,3.2028,0.0 ] } },
{ "type": "Feature", "properties": { "name": "Mali", "zhname": "马里", "destnum": 227765, "orignum": 719864},      "geometry": { "type": "Point", "coordinates": [-3.9962,17.5707,0.0 ] } },
{ "type": "Feature", "properties": { "name": "Malta", "zhname": "马耳他", "destnum": 43261, "orignum": 54259},      "geometry": { "type": "Point", "coordinates": [14.3754,35.9375,0.0 ] } },
{ "type": "Feature", "properties": { "name": "Marshall Islands", "zhname": "马绍尔群岛", "destnum": 1786, "orignum": 4005},      "geometry": { "type": "Point", "coordinates": [171.1845,7.1315,0.0 ] } },
{ "type": "Feature", "properties": { "name": "Martinique", "zhname": "马提尼克", "destnum": 26216, "orignum": 6260},      "geometry": { "type": "Point", "coordinates": [61.0242,14.6415,0.0 ] } },
{ "type": "Feature", "properties": { "name": "Mauritania", "zhname": "毛里塔尼亚", "destnum": 94697, "orignum": 79112},      "geometry": { "type": "Point", "coordinates": [10.9408,21.0079,0.0 ] } },
{ "type": "Feature", "properties": { "name": "Mauritius", "zhname": "毛里求斯", "destnum": 15250, "orignum": 85194},      "geometry": { "type": "Point", "coordinates": [57.5522,-20.3484,0.0 ] } },
{ "type": "Feature", "properties": { "name": "Mayotte", "zhname": "马约特岛", "destnum": 33821, "orignum": 3230},      "geometry": { "type": "Point", "coordinates": [45.1662,-12.8275,0.0 ] } },
{ "type": "Feature", "properties": { "name": "Mexico", "zhname": "墨西哥", "destnum": 520764, "orignum": 6277778},      "geometry": { "type": "Point", "coordinates": [-99.1332,19.4326,0.0 ] } },
{ "type": "Feature", "properties": { "name": "Micronesia (Federated States of)", "zhname": "密克罗尼西亚", "destnum": 538, "orignum": 10836},      "geometry": { "type": "Point", "coordinates": [150.5508,7.4256,0.0 ] } },
{ "type": "Feature", "properties": { "name": "Monaco", "zhname": "摩纳哥", "destnum": 6630, "orignum": 14899},      "geometry": { "type": "Point", "coordinates": [7.4246,43.7384,0.0 ] } },
{ "type": "Feature", "properties": { "name": "Mongolia", "zhname": "蒙古", "destnum": 13700, "orignum": 35153},      "geometry": { "type": "Point", "coordinates": [103.8467,46.8625,0.0 ] } },
{ "type": "Feature", "properties": { "name": "Montenegro", "zhname": "黑山", "destnum": 27501, "orignum": 71753},      "geometry": { "type": "Point", "coordinates": [19.3744,42.7087,0.0 ] } },
{ "type": "Feature", "properties": { "name": "Montserrat", "zhname": "蒙特色拉特岛", "destnum": 582, "orignum": 10009},      "geometry": { "type": "Point", "coordinates": [-62.1874,16.7425,0.0 ] } },
{ "type": "Feature", "properties": { "name": "Morocco", "zhname": "摩洛哥", "destnum": 41041, "orignum": 1647038},      "geometry": { "type": "Point", "coordinates": [-7.0926,31.7917,0.0 ] } },
{ "type": "Feature", "properties": { "name": "Mozambique", "zhname": "莫桑比克", "destnum": 153582, "orignum": 653071},      "geometry": { "type": "Point", "coordinates": [35.5296,-18.6657,0.0 ] } },
{ "type": "Feature", "properties": { "name": "Myanmar", "zhname": "缅甸", "destnum": 36168, "orignum": 2324597},      "geometry": { "type": "Point", "coordinates": [95.956,21.9162,0.0 ] } },
{ "type": "Feature", "properties": { "name": "Namibia", "zhname": "纳米比亚", "destnum": 56870, "orignum": 91117},      "geometry": { "type": "Point", "coordinates": [18.4904,-22.9576,0.0 ] } },
{ "type": "Feature", "properties": { "name": "Nauru", "zhname": "瑙鲁", "destnum": 809, "orignum": 1204},      "geometry": { "type": "Point", "coordinates": [166.9315,-0.5228,0.0 ] } },
{ "type": "Feature", "properties": { "name": "Nepal", "zhname": "尼泊尔", "destnum": 141581, "orignum": 1399285},      "geometry": { "type": "Point", "coordinates": [84.124,28.3949,0.0 ] } },
{ "type": "Feature", "properties": { "name": "Netherlands", "zhname": "荷兰", "destnum": 1100156, "orignum": 496339},      "geometry": { "type": "Point", "coordinates": [5.2913,52.1326,0.0 ] } },
{ "type": "Feature", "properties": { "name": "New Caledonia", "zhname": "新喀里多尼亚", "destnum": 35818, "orignum": 2364},      "geometry": { "type": "Point", "coordinates": [165.618,-20.9043,0.0 ] } },
{ "type": "Feature", "properties": { "name": "New Zealand", "zhname": "新西兰", "destnum": 496452, "orignum": 398413},      "geometry": { "type": "Point", "coordinates": [174.886,-40.9006,0.0 ] } },
{ "type": "Feature", "properties": { "name": "Nicaragua", "zhname": "尼加拉瓜", "destnum": 20702, "orignum": 320782},      "geometry": { "type": "Point", "coordinates": [-85.2072,12.8654,0.0 ] } },
{ "type": "Feature", "properties": { "name": "Niger", "zhname": "尼日尔", "destnum": 134192, "orignum": 232174},      "geometry": { "type": "Point", "coordinates": [8.0817,17.6078,0.0 ] } },
{ "type": "Feature", "properties": { "name": "Nigeria", "zhname": "尼日利亚", "destnum": 618804, "orignum": 776073},      "geometry": { "type": "Point", "coordinates": [8.6753,9.082,0.0 ] } },
{ "type": "Feature", "properties": { "name": "Niue", "zhname": "纽埃", "destnum": 289, "orignum": 2749},      "geometry": { "type": "Point", "coordinates": [-169.8672,-19.0544,0.0 ] } },
{ "type": "Feature", "properties": { "name": "Northern Mariana Islands", "zhname": "北马里亚纳群岛", "destnum": 8929, "orignum": 1419},      "geometry": { "type": "Point", "coordinates": [145.6739,15.0979,0.0 ] } },
{ "type": "Feature", "properties": { "name": "Norway", "zhname": "挪威", "destnum": 445506, "orignum": 88557},      "geometry": { "type": "Point", "coordinates": [8.4689,60.472,0.0 ] } },
{ "type": "Feature", "properties": { "name": "Oman", "zhname": "阿曼", "destnum": 1849253, "orignum": 12068},      "geometry": { "type": "Point", "coordinates": [55.9754,21.4735,0.0 ] } },
{ "type": "Feature", "properties": { "name": "Pakistan", "zhname": "巴基斯坦", "destnum": 1675199, "orignum": 4234386},      "geometry": { "type": "Point", "coordinates": [69.3451,30.3753,0.0 ] } },
{ "type": "Feature", "properties": { "name": "Palau", "zhname": "帕劳", "destnum": 2785, "orignum": 1382},      "geometry": { "type": "Point", "coordinates": [134.5825,7.515,0.0 ] } },
{ "type": "Feature", "properties": { "name": "Panama", "zhname": "巴拿马", "destnum": 93879, "orignum": 78707},      "geometry": { "type": "Point", "coordinates": [-79.5199,8.9824,0.0 ] } },
{ "type": "Feature", "properties": { "name": "Papua New Guinea", "zhname": "巴布亚新几内亚", "destnum": 18233, "orignum": 2336},      "geometry": { "type": "Point", "coordinates": [143.9555,-6.315,0.0 ] } },
{ "type": "Feature", "properties": { "name": "Paraguay", "zhname": "巴拉圭", "destnum": 81603, "orignum": 374733},      "geometry": { "type": "Point", "coordinates": [-58.4438,-23.4425,0.0 ] } },
{ "type": "Feature", "properties": { "name": "Peru", "zhname": "秘鲁", "destnum": 423187, "orignum": 648219},      "geometry": { "type": "Point", "coordinates": [-75.0152,-9.19,0.0 ] } },
{ "type": "Feature", "properties": { "name": "Philippines", "zhname": "菲律宾", "destnum": 84616, "orignum": 2754933},      "geometry": { "type": "Point", "coordinates": [121.774,12.8797,0.0 ] } },
{ "type": "Feature", "properties": { "name": "Poland", "zhname": "波兰", "destnum": 286405, "orignum": 2212963},      "geometry": { "type": "Point", "coordinates": [19.1451,51.9194,0.0 ] } },
{ "type": "Feature", "properties": { "name": "Portugal", "zhname": "葡萄牙", "destnum": 410103, "orignum": 1105701},      "geometry": { "type": "Point", "coordinates": [-8.2245,39.3999,0.0 ] } },
{ "type": "Feature", "properties": { "name": "Puerto Rico", "zhname": "波多黎各", "destnum": 114449, "orignum": 906849},      "geometry": { "type": "Point", "coordinates": [-66.5901,18.2208,0.0 ] } },
{ "type": "Feature", "properties": { "name": "Qatar", "zhname": "卡塔尔", "destnum": 1820925, "orignum": 13243},      "geometry": { "type": "Point", "coordinates": [51.1839,25.3548,0.0 ] } },
{ "type": "Feature", "properties": { "name": "Republic of Korea", "zhname": "韩国", "destnum": 622852, "orignum": 1148330},      "geometry": { "type": "Point", "coordinates": [127.7669,35.9078,0.0 ] } },
{ "type": "Feature", "properties": { "name": "Republic of Moldova", "zhname": "摩尔多瓦共和国", "destnum": 40270, "orignum": 481699},      "geometry": { "type": "Point", "coordinates": [28.3699,47.4116,0.0 ] } },
{ "type": "Feature", "properties": { "name": "Réunion", "zhname": "留尼汪", "destnum": 61531, "orignum": 1153},      "geometry": { "type": "Point", "coordinates": [55.5364,21.1151,0.0 ] } },
{ "type": "Feature", "properties": { "name": "Romania", "zhname": "罗马尼亚", "destnum": 239760, "orignum": 1710646},      "geometry": { "type": "Point", "coordinates": [24.9668,45.9432,0.0 ] } },
{ "type": "Feature", "properties": { "name": "Russian Federation", "zhname": "俄罗斯", "destnum": 5713498, "orignum": 4603318},      "geometry": { "type": "Point", "coordinates": [105.3188,61.523999999999994,0.0 ] } },
{ "type": "Feature", "properties": { "name": "Rwanda", "zhname": "卢旺达", "destnum": 264600, "orignum": 243927},      "geometry": { "type": "Point", "coordinates": [29.8739,-1.9403,0.0 ] } },
{ "type": "Feature", "properties": { "name": "Saint Helena", "zhname": "圣赫勒拿", "destnum": 252, "orignum": 2582},      "geometry": { "type": "Point", "coordinates": [-5.7167,-15.9333,0.0 ] } },
{ "type": "Feature", "properties": { "name": "Saint Kitts and Nevis", "zhname": "圣基茨与尼维斯联邦", "destnum": 1841, "orignum": 19585},      "geometry": { "type": "Point", "coordinates": [-62.783,17.3578,0.0 ] } },
{ "type": "Feature", "properties": { "name": "Saint Lucia", "zhname": "圣露西亚", "destnum": 3742, "orignum": 26608},      "geometry": { "type": "Point", "coordinates": [-60.9789,13.9094,0.0 ] } },
{ "type": "Feature", "properties": { "name": "Saint Pierre and Miquelon", "zhname": "圣皮埃尔和密克隆群岛", "destnum": 506, "orignum": 244},      "geometry": { "type": "Point", "coordinates": [-56.1806,46.7758,0.0 ] } },
{ "type": "Feature", "properties": { "name": "Saint Vincent and the Grenadines", "zhname": "圣文森特和格林纳丁斯", "destnum": 2237, "orignum": 31805},      "geometry": { "type": "Point", "coordinates": [-61.2872,12.9843,0.0 ] } },
{ "type": "Feature", "properties": { "name": "Samoa", "zhname": "萨摩亚", "destnum": 1852, "orignum": 61096},      "geometry": { "type": "Point", "coordinates": [-172.1046,-13.759,0.0 ] } },
{ "type": "Feature", "properties": { "name": "San Marino", "zhname": "圣马力诺", "destnum": 2833, "orignum": 980},      "geometry": { "type": "Point", "coordinates": [12.4473,43.9356,0.0 ] } },
{ "type": "Feature", "properties": { "name": "Sao Tome and Principe", "zhname": "圣多美和普林西比", "destnum": 1066, "orignum": 17382},      "geometry": { "type": "Point", "coordinates": [6.6131,0.1864,0.0 ] } },
{ "type": "Feature", "properties": { "name": "Saudi Arabia", "zhname": "沙特阿拉伯", "destnum": 8697061, "orignum": 166096},      "geometry": { "type": "Point", "coordinates": [45.0792,23.8859,0.0 ] } },
{ "type": "Feature", "properties": { "name": "Senegal", "zhname": "塞内加尔", "destnum": 125119, "orignum": 401227},      "geometry": { "type": "Point", "coordinates": [-14.4524,14.4974,0.0 ] } },
{ "type": "Feature", "properties": { "name": "Serbia", "zhname": "塞尔维亚", "destnum": 360904, "orignum": 470672},      "geometry": { "type": "Point", "coordinates": [21.0059,44.0165,0.0 ] } },
{ "type": "Feature", "properties": { "name": "Seychelles", "zhname": "塞舌尔", "destnum": 8777, "orignum": 12752},      "geometry": { "type": "Point", "coordinates": [55.492,-4.6796,0.0 ] } },
{ "type": "Feature", "properties": { "name": "Sierra Leone", "zhname": "塞拉利昂", "destnum": 30178, "orignum": 76957},      "geometry": { "type": "Point", "coordinates": [-11.7799,8.4606,0.0 ] } },
{ "type": "Feature", "properties": { "name": "Singapore", "zhname": "新加坡", "destnum": 834256, "orignum": 167642},      "geometry": { "type": "Point", "coordinates": [103.8198,1.3521,0.0 ] } },
{ "type": "Feature", "properties": { "name": "Sint Maarten (Dutch part)", "zhname": "荷属圣马丁", "destnum": 12298, "orignum": 13875},      "geometry": { "type": "Point", "coordinates": [-63.0333,18.0167,0.0 ] } },
{ "type": "Feature", "properties": { "name": "Slovakia", "zhname": "斯洛伐克", "destnum": 95611, "orignum": 166174},      "geometry": { "type": "Point", "coordinates": [19.699,48.669,0.0 ] } },
{ "type": "Feature", "properties": { "name": "Slovenia", "zhname": "斯洛文尼亚", "destnum": 128235, "orignum": 66342},      "geometry": { "type": "Point", "coordinates": [14.9955,46.1512,0.0 ] } },
{ "type": "Feature", "properties": { "name": "Solomon Islands", "zhname": "所罗门群岛", "destnum": 1114, "orignum": 2058},      "geometry": { "type": "Point", "coordinates": [160.1562,-9.6457,0.0 ] } },
{ "type": "Feature", "properties": { "name": "Somalia", "zhname": "索马里", "destnum": 13239, "orignum": 1067138},      "geometry": { "type": "Point", "coordinates": [46.1996,5.1521,0.0 ] } },
{ "type": "Feature", "properties": { "name": "South Africa", "zhname": "南非", "destnum": 1712005, "orignum": 416974},      "geometry": { "type": "Point", "coordinates": [22.9375,-30.5595,0.0 ] } },
{ "type": "Feature", "properties": { "name": "South Sudan", "zhname": "南苏丹", "destnum": 440136, "orignum": 1281486},      "geometry": { "type": "Point", "coordinates": [31.307,6.877000000000001,0.0 ] } },
{ "type": "Feature", "properties": { "name": "Spain", "zhname": "西班牙", "destnum": 2905566, "orignum": 648799},      "geometry": { "type": "Point", "coordinates": [-3.7492,40.4637,0.0 ] } },
{ "type": "Feature", "properties": { "name": "Sri Lanka", "zhname": "斯里兰卡", "destnum": 19943, "orignum": 1107793},      "geometry": { "type": "Point", "coordinates": [80.7718,7.8731,0.0 ] } },
{ "type": "Feature", "properties": { "name": "State of Palestine", "zhname": "巴勒斯坦国", "destnum": 101940, "orignum": 2019313},      "geometry": { "type": "Point", "coordinates": [35.2332,31.9522,0.0 ] } },
{ "type": "Feature", "properties": { "name": "Sudan", "zhname": "苏丹", "destnum": 593475, "orignum": 1125738},      "geometry": { "type": "Point", "coordinates": [30.2176,12.8628,0.0 ] } },
{ "type": "Feature", "properties": { "name": "Suriname", "zhname": "苏里南", "destnum": 14804, "orignum": 125906},      "geometry": { "type": "Point", "coordinates": [-56.0278,3.9193,0.0 ] } },
{ "type": "Feature", "properties": { "name": "Swaziland", "zhname": "斯威士兰", "destnum": 12134, "orignum": 51287},      "geometry": { "type": "Point", "coordinates": [31.4659,-26.5225,0.0 ] } },
{ "type": "Feature", "properties": { "name": "Sweden", "zhname": "瑞典", "destnum": 962196, "orignum": 160117},      "geometry": { "type": "Point", "coordinates": [18.6435,60.1282,0.0 ] } },
{ "type": "Feature", "properties": { "name": "Switzerland", "zhname": "瑞士", "destnum": 1181162, "orignum": 322973},      "geometry": { "type": "Point", "coordinates": [8.2275,46.8182,0.0 ] } },
{ "type": "Feature", "properties": { "name": "Syrian Arab Republic", "zhname": "阿拉伯叙利亚共和国", "destnum": 408824, "orignum": 4861046},      "geometry": { "type": "Point", "coordinates": [38.9968,34.8021,0.0 ] } },
{ "type": "Feature", "properties": { "name": "Tajikistan", "zhname": "塔吉克斯坦", "destnum": 118081, "orignum": 333952},      "geometry": { "type": "Point", "coordinates": [71.2761,38.861,0.0 ] } },
{ "type": "Feature", "properties": { "name": "Thailand", "zhname": "泰国", "destnum": 1824956, "orignum": 340550},      "geometry": { "type": "Point", "coordinates": [100.9925,15.87,0.0 ] } },
{ "type": "Feature", "properties": { "name": "The former Yugoslav Republic of Macedonia", "zhname": "马其顿前南斯拉夫共和国", "destnum": 54048, "orignum": 354208},      "geometry": { "type": "Point", "coordinates": [21.7453,41.6086,0.0 ] } },
{ "type": "Feature", "properties": { "name": "Timor-Leste", "zhname": "东帝汶", "destnum": 4386, "orignum": 21660},      "geometry": { "type": "Point", "coordinates": [125.7275,-8.8742,0.0 ] } },
{ "type": "Feature", "properties": { "name": "Togo", "zhname": "多哥", "destnum": 131471, "orignum": 264960},      "geometry": { "type": "Point", "coordinates": [0.8248,8.6195,0.0 ] } },
{ "type": "Feature", "properties": { "name": "Tokelau", "zhname": "托克劳群岛", "destnum": 213, "orignum": 1129},      "geometry": { "type": "Point", "coordinates": [-171.8484,-9.2002,0.0 ] } },
{ "type": "Feature", "properties": { "name": "Tonga", "zhname": "汤加", "destnum": 560, "orignum": 31309},      "geometry": { "type": "Point", "coordinates": [-175.1982,-21.179000000000002,0.0 ] } },
{ "type": "Feature", "properties": { "name": "Trinidad and Tobago", "zhname": "特立尼达和多巴哥", "destnum": 25267, "orignum": 165908},      "geometry": { "type": "Point", "coordinates": [-61.2225,10.6918,0.0 ] } },
{ "type": "Feature", "properties": { "name": "Tunisia", "zhname": "突尼斯", "destnum": 23952, "orignum": 466817},      "geometry": { "type": "Point", "coordinates": [9.5375,33.8869,0.0 ] } },
{ "type": "Feature", "properties": { "name": "Turkey", "zhname": "土耳其", "destnum": 3179611, "orignum": 1803961},      "geometry": { "type": "Point", "coordinates": [35.2433,38.9637,0.0 ] } },
{ "type": "Feature", "properties": { "name": "Turkmenistan", "zhname": "土库曼斯坦", "destnum": 90039, "orignum": 116444},      "geometry": { "type": "Point", "coordinates": [59.5563,38.9697,0.0 ] } },
{ "type": "Feature", "properties": { "name": "Turks and Caicos Islands", "zhname": "特克斯和凯科斯群岛", "destnum": 9680, "orignum": 1141},      "geometry": { "type": "Point", "coordinates": [-71.7979,21.694000000000003,0.0 ] } },
{ "type": "Feature", "properties": { "name": "Tuvalu", "zhname": "图瓦卢", "destnum": 57, "orignum": 1616},      "geometry": { "type": "Point", "coordinates": [177.6493,-7.1095,0.0 ] } },
{ "type": "Feature", "properties": { "name": "Uganda", "zhname": "乌干达", "destnum": 835262, "orignum": 365691},      "geometry": { "type": "Point", "coordinates": [32.2903,1.3733,0.0 ] } },
{ "type": "Feature", "properties": { "name": "Ukraine", "zhname": "乌克兰", "destnum": 1957989, "orignum": 2694012},      "geometry": { "type": "Point", "coordinates": [31.1656,48.3794,0.0 ] } },
{ "type": "Feature", "properties": { "name": "United Arab Emirates", "zhname": "阿联酋", "destnum": 6170133, "orignum": 86738},      "geometry": { "type": "Point", "coordinates": [53.8478,23.4241,0.0 ] } },
{ "type": "Feature", "properties": { "name": "United Kingdom of Great Britain and Northern Ireland", "zhname": "英国", "destnum": 4550845, "orignum": 2395016},      "geometry": { "type": "Point", "coordinates": [-3.4360000000000004,55.3781,0.0 ] } },
{ "type": "Feature", "properties": { "name": "United Republic of Tanzania", "zhname": "坦桑尼亚联合共和国", "destnum": 233041, "orignum": 160024},      "geometry": { "type": "Point", "coordinates": [34.8888,-6.369,0.0 ] } },
{ "type": "Feature", "properties": { "name": "United States of America", "zhname": "美国", "destnum": 23140353, "orignum": 1455843},      "geometry": { "type": "Point", "coordinates": [-95.7129,37.0902,0.0 ] } },
{ "type": "Feature", "properties": { "name": "United States Virgin Islands", "zhname": "美属维尔京群岛", "destnum": 26078, "orignum": 2285},      "geometry": { "type": "Point", "coordinates": [-64.8963,18.3358,0.0 ] } },
{ "type": "Feature", "properties": { "name": "Uruguay", "zhname": "乌拉圭", "destnum": 33700, "orignum": 174505},      "geometry": { "type": "Point", "coordinates": [-55.7658,-32.5228,0.0 ] } },
{ "type": "Feature", "properties": { "name": "Uzbekistan", "zhname": "乌兹别克斯坦", "destnum": 506892, "orignum": 1024600},      "geometry": { "type": "Point", "coordinates": [64.5853,41.3775,0.0 ] } },
{ "type": "Feature", "properties": { "name": "Vanuatu", "zhname": "瓦努阿图", "destnum": 1157, "orignum": 3477},      "geometry": { "type": "Point", "coordinates": [166.9592,-15.3767,0.0 ] } },
{ "type": "Feature", "properties": { "name": "Venezuela (Bolivarian Republic of)", "zhname": "委内瑞拉", "destnum": 685855, "orignum": 1223566},      "geometry": { "type": "Point", "coordinates": [-66.5897,6.4238,0.0 ] } },
{ "type": "Feature", "properties": { "name": "Viet Nam", "zhname": "越南", "destnum": 40922, "orignum": 1394062},      "geometry": { "type": "Point", "coordinates": [108.2772,14.0583,0.0 ] } },
{ "type": "Feature", "properties": { "name": "Wallis and Futuna Islands", "zhname": "瓦利斯群岛和富图纳群岛", "destnum": 508, "orignum": 5631},      "geometry": { "type": "Point", "coordinates": [-178.1165,-14.2938,0.0 ] } },
{ "type": "Feature", "properties": { "name": "Western Sahara", "zhname": "西撒哈拉", "destnum": 3047, "orignum": 103236},      "geometry": { "type": "Point", "coordinates": [-12.8858,24.2155,0.0 ] } },
{ "type": "Feature", "properties": { "name": "Yemen", "zhname": "也门", "destnum": 185481, "orignum": 814668},      "geometry": { "type": "Point", "coordinates": [48.5164,15.5527,0.0 ] } },
{ "type": "Feature", "properties": { "name": "Zambia", "zhname": "赞比亚", "destnum": 75657, "orignum": 149898},      "geometry": { "type": "Point", "coordinates": [27.8493,-13.1339,0.0 ] } },
{ "type": "Feature", "properties": { "name": "Zimbabwe", "zhname": "津巴布韦", "destnum": 168162, "orignum": 472252},      "geometry": { "type": "Point", "coordinates": [29.1549,-19.0154,0.0 ] } }
]
}